country,lat,lon,website,place_type
BE,50.8315009,4.3599907,www.ponant.com,Facility
BE,50.7490999,3.641373,www.mcronse.eu,Commerce
BE,50.8741598,3.3305422,www.bpost.be,Facility
BE,51.424082,4.4625405,www.essensebandenservice.be,Commerce
BE,50.6239355,6.0372071,doenertag.be,Facility
BE,50.8354588,4.2995992,www.villo.be,Facility
BE,50.7157443,4.3987193,www.sarahpacini.com,Commerce
BE,50.9455854,3.3435098,inventaris.onroerenderfgoed.be,Unknown
BE,50.987422,5.2722977,hetbolderke.be,Facility
BE,51.1988663,3.1855342,www.basisschoolgistelsesteenweg.be,Facility
BE,50.7074333,6.0155136,www.dav-aachen.de,Facility
BE,50.4537329,3.9525484,www.mons-immo.be,Facility
BE,50.8842659,4.528965,www.dex.be,Commerce
BE,50.8960042,3.4263621,www.printburo.be,Commerce
BE,50.7585115,5.7630594,www.auberge-sgravenhof.be,Facility
BE,50.8037764,4.3334104,www.villo.be,Facility
BE,50.6735107,5.5474545,pharmasante.be,Facility
BE,51.0978234,2.5759647,www.zcdekrab.be,Facility
BE,51.086558,3.4488758,www.stat68.be,Facility
BE,51.2987426,4.5183095,www.civieleveiligheid.be,Facility
BE,50.7323629,4.6551859,sofico.org,Facility
BE,51.1551701,4.8923971,www.olen.be,Facility
BE,50.9972451,5.4748411,www.brunosfoodcorner.be,Facility
BE,51.303335,3.1403137,www.zilvermeeuwblankenberge.be,Facility
BE,50.9573561,3.6088368,www.nazareth.be,Facility
BE,51.0356511,3.7126963,www.zonneschijn.be,Commerce
BE,50.5393847,5.7596991,www.restaurant-eau-vive.be,Facility
BE,51.0789454,5.1503615,www.ilumen.be,Unknown
BE,50.9170449,3.2127645,salonkee.be,Commerce
BE,50.9860783,5.0530034,www.kapperdirk.net,Commerce
BE,50.9975982,3.7666395,www.ugent.be,Facility
BE,50.8300824,4.3381718,cycloparking.brussels,Facility
BE,50.6185487,3.3133069,ideta.be,Unknown
BE,51.0511174,3.7250653,www.juttu.be,Commerce
BE,51.2337431,4.4971974,www.storymagazine.be,Unknown
BE,50.8852666,3.3552918,www.sbsdesselgem.be,Facility
BE,51.3140446,4.9906318,www.zeeman.com,Commerce
BE,51.011394,3.9610153,objt.com,Facility
BE,50.1213284,4.9809016,newsokao.be,Facility
BE,51.1511973,4.9025642,www.dirkdewittekappers.be,Commerce
BE,51.0494985,5.2234595,www.sjarbon.be,Commerce
BE,50.782647,3.2808365,www.chiconette.be,Facility
BE,50.3759666,4.2393126,www.robot-coupe.com,Commerce
BE,50.9153467,5.2467062,vbstevoort.sg-zevensprong.be,Facility
BE,51.061184,3.7485837,www.bakkerijaernoudt.be,Commerce
BE,50.9983012,3.3461873,www.thirypaints.be,Commerce
BE,51.2073782,4.3969626,www.politieantwerpen.be,Facility
BE,51.268502,4.8635364,www.lille.be,Facility
BE,51.0631237,3.7214799,www.huisartsenwachtposten.be,Facility
BE,50.5989497,4.3543365,trafic.com,Commerce
BE,51.038914,3.4011413,zonemidwest.be,Facility
BE,51.0554186,5.2728192,hetbierhuis.be,Facility
BE,51.0749425,2.6649979,www.cwgc.org,Unknown
BE,50.5186859,5.2393932,www.croquenoisette.be,Commerce
BE,50.7976287,4.7339399,nouveau.lesaiglons.be,Unknown
BE,51.174941,3.339454,www.tuinhobbystmarie.be,Commerce
BE,50.6754959,5.209263,www.moulindugeer.be,Facility
BE,50.8482037,5.484465,www.tfabriek.be,Facility
BE,51.208308,4.4141443,www.sintjozefinstituut.be,Facility
BE,50.9464527,4.7540362,inventaris.onroerenderfgoed.be,Unknown
BE,51.0227188,4.4807428,hutshop.be,Commerce
BE,50.8613986,2.9159195,www.cwgc.org,Unknown
BE,51.2364334,4.4212967,www.autoveiligheid.be,Unknown
BE,50.9576832,3.5968646,www.nazareth.be,Facility
BE,50.8973425,4.4850728,www.skyhall.be,Facility
BE,50.8770073,4.6967213,www.dijlehof.be,Facility
BE,50.9483084,5.1149073,apotheekcentrum.be,Facility
BE,51.1497996,4.9663354,www.camber.be,Commerce
BE,50.8256058,4.3347046,cycloparking.brussels,Facility
BE,51.1427833,4.3816058,buonsenso.be,Commerce
BE,51.0227525,4.5467315,www.gybels.be,Unknown
BE,50.8952032,3.8068712,www.hofvanoranje.be,Facility
BE,51.0564525,3.7232369,www.veritas.be,Commerce
BE,51.2201376,4.4002955,www.deroodenhoed.be,Facility
BE,51.2761833,3.0304348,www.woestyn.be,Commerce
BE,50.4803193,4.9724909,biodiversite.wallonie.be,Facility
BE,50.590763,4.3092486,www.shopping-nivelles.be,Commerce
BE,51.0008733,3.6443933,www.hethuisvandekapper-depinte.be,Commerce
BE,50.4656388,4.6686837,www.jemeppe-sur-sambre.be,Facility
BE,50.5924859,5.5462656,spaque.be,Facility
BE,50.4353918,3.8446657,www.leuckx.be,Commerce
BE,50.8973228,4.357918,kitencre.be,Commerce
BE,50.60139,3.4079958,www.pro-duo.be,Commerce
BE,49.9452145,5.6010751,www.carrosserielaroche.be,Commerce
BE,51.0536589,5.2707776,www.peeters-tuinen.be,Commerce
BE,50.8877001,3.4584467,freinetwaregem.be,Facility
BE,50.0780489,4.6384972,fermedelajussiere.blogspot.com,Unknown
BE,50.6813102,4.2981936,thaichef.be,Facility
BE,50.8857986,3.4288108,www.koffiegrymonprez.be,Commerce
BE,50.7261358,5.5082587,www.henroprint.be,Commerce
BE,51.1769114,4.8338979,www.hansanders.be,Commerce
BE,50.9800164,5.0465618,www.msoc-vlaamsbrabant.be,Facility
BE,50.8052873,4.2919414,www.ah.be,Commerce
BE,51.1316786,5.0822962,www.hejmee.be,Commerce
BE,51.1362201,5.5322699,www.decorateve.com,Commerce
BE,51.284232,4.5005222,www.casa-ametza.be,Unknown
BE,50.8862706,4.6878246,www.dewijnpers.be,Facility
BE,51.0062442,3.3204873,apotheekbaerttielt.be,Facility
BE,50.5915448,6.1691569,www.lifehautesfagnes.be,Facility
BE,50.4073412,4.4413707,www.proximus.be,Commerce
BE,50.6889987,5.5850623,realita-cash-carry.business.site,Commerce
BE,51.036311,3.7239671,www.ugent.be,Facility
BE,51.1579287,4.1556972,www.leenbakker.be,Commerce
BE,51.2333838,2.9153233,www.expo-kafie.be,Facility
BE,51.1802327,4.3745011,www.praktijkhollebeek.be,Facility
BE,50.9815937,4.5729262,www.boortmeerbeek.be,Facility
BE,50.8958,4.7060509,desyndicus.be,Facility
BE,51.0304913,5.2333663,www.fe-interieur.be,Unknown
BE,50.9805469,3.6118263,www.aardbeienverstraete.be,Facility
BE,51.1326956,4.3884827,www.pearle.be,Commerce
BE,50.4500039,3.9409097,www.belforma.be,Commerce
BE,50.3753681,4.9405537,www.ores.be,Unknown
BE,51.0677003,4.9675672,mytho.be,Facility
BE,50.6311626,5.6018178,www.battlekart.com,Unknown
BE,51.2972827,4.6845271,www.peethultra.be,Facility
BE,51.206595,4.4629995,www.antwerpen.be,Facility
BE,50.4520772,3.98595,ceref.helha.be,Facility
BE,51.1948122,4.7419129,ond.vlaanderen.be,Facility
BE,50.6049217,5.3409258,www.jbc.be,Commerce
BE,50.6948487,4.2056366,www.cassis.be,Commerce
BE,51.0601941,4.7151035,www.elektro-dermo.com,Facility
BE,51.0087563,3.6332001,blvd.be,Facility
BE,51.0027312,3.6178588,new-signature.be,Commerce
BE,50.8764223,4.7148917,www.lynx.care,Facility
BE,51.0293093,3.8469061,www.kiminteriordesign.com,Commerce
BE,50.9712253,3.7155944,www.vdk.be,Commerce
BE,50.9384297,5.3048357,www.action.com,Commerce
BE,50.4536353,4.4565281,ic-sc.be,Facility
BE,50.8983361,4.4839079,www.brusselsairport.be,Facility
BE,50.9033253,3.3298856,www.depedaal.be,Commerce
BE,50.8094209,4.9296811,www.biopharm.be,Facility
BE,51.2387876,4.336435,lanxess.com,Facility
BE,51.2065296,4.4305252,www.elwarda.be,Facility
BE,50.2030269,4.8921894,www.brasseriecaracole.be,Commerce
BE,50.7377276,5.6098481,friteriestrauven.eatbu.com,Unknown
BE,51.0331394,4.0877401,www.hairfashiondendermonde.be,Commerce
BE,51.2261892,4.4167823,royalking-loungebar.com,Facility
BE,51.2088245,3.2610303,www.dumpimart.be,Commerce
BE,51.1891462,3.5528555,www.eeklo.be,Unknown
BE,51.2203048,4.4182359,www.atheneumantwerpen.be,Facility
BE,51.0472976,5.2776187,www.rauwbbq.be,Facility
BE,50.5151142,4.0069373,www.gite-lapetitepomme.com,Facility
BE,51.214859,4.3945237,www.mesa.world,Facility
BE,50.9794784,3.1987591,www.advocatenkantoorsupply.be,Facility
BE,49.9925446,5.0558442,maisonmalou.be,Facility
BE,51.2275833,4.4391725,www.velo-antwerpen.be,Facility
BE,50.7892667,5.4832431,www.azvesalius.be,Facility
BE,51.0499624,4.9485896,www.tuincentervanroie.be,Commerce
BE,51.2090403,4.4326011,www.velo-antwerpen.be,Facility
BE,50.9902909,3.6555222,boetiekdress.be,Commerce
BE,50.8163681,5.1996955,www.mercedes-benz-claes-zonen.be,Facility
BE,51.0799277,5.0216062,www.laakdal.be,Facility
BE,51.0387755,3.730756,kingslizepizza.be,Facility
BE,51.172081,4.1461435,www.tvoost.be,Facility
BE,50.7284174,5.6672847,www.autoval.be,Commerce
BE,49.9870537,5.6204147,justexpression.be,Commerce
BE,51.2312385,5.3099828,www.lapergola-lommel.be,Facility
BE,50.9706621,3.1208647,www.asadventure.com,Commerce
BE,50.7309238,5.6697266,www.colruyt.be,Commerce
BE,51.1393209,5.6039176,hasu-bree.be,Facility
BE,50.4801629,5.7088189,www.academie-ova.be,Facility
BE,51.3246216,4.3810489,www.hoeveslagerijgabriels.be,Commerce
BE,51.069859,5.129762,www.tessenderlo.be,Facility
BE,51.117413,5.2461031,www.campusflx.be,Facility
BE,50.9865675,5.0493418,www.vangorp-arnauts.be,Facility
BE,49.9575024,5.5866595,www.les-myosotis.be,Facility
BE,51.0881608,5.2220237,www.comeacasabeverlo.be,Facility
BE,50.6687915,4.6147695,www.habitat-participation.be,Facility
BE,51.2137978,3.2081678,www.apotheekdelaere-bonte.be,Facility
BE,50.7954917,4.3153995,www.vandenborre.be,Commerce
BE,50.9715217,3.6650456,www.delijn.be,Facility
BE,50.9845143,3.5630183,www.uitvaartverzorgingvandenabeele.be,Commerce
BE,51.1053012,4.4108047,www.boekhouding-fiduciairebergmans.be,Facility
BE,51.228382,5.4347597,www.degrieksekeuken.be,Facility
BE,50.8381792,2.9441068,www.cwgc.org,Facility
BE,50.4979068,4.7233147,www.enhestia.be,Facility
BE,50.9199758,3.2062777,www.studiofibelle.be,Commerce
BE,51.0501267,3.7053847,www.politie.be,Facility
BE,50.4082174,4.1744052,dmmj-motor.be,Commerce
BE,50.8275315,4.352149,cycloparking.brussels,Facility
BE,51.1709857,4.1372872,www.sint-niklaas.be,Unknown
BE,51.0569808,5.275667,www.allego.eu,Facility
BE,50.9481977,3.1296553,www.phr.be,Facility
BE,51.2324485,5.2927004,www.trxxs-winkel.be,Commerce
BE,51.1134579,5.0955849,www.vbsdeegelantier.be,Facility
BE,50.9852408,5.3597157,www.savascars.be,Commerce
BE,50.8799731,4.7068279,www.vandenbalck.be,Commerce
BE,51.0685391,5.1467119,www.magazijntje.com,Commerce
BE,50.3938315,4.4599062,www.onss.be,Facility
BE,50.8786424,4.7033984,www.bavet.eu,Facility
BE,50.9158005,3.3335487,inventaris.onroerenderfgoed.be,Unknown
BE,50.4577843,4.8793666,www.namur.be,Unknown
BE,51.0737455,5.7553203,garagevanderveken.be,Commerce
BE,50.9388941,4.4276384,www.bruxelles-remorques.be,Commerce
BE,50.798159,3.1316587,www.coiffuresubliem.be,Commerce
BE,51.2065357,4.3888943,www.gramma.be,Facility
BE,50.8924812,3.3337022,www.funengrill.be,Facility
BE,50.993788,4.8375064,www.tangsgarden.be,Facility
BE,50.8448834,4.4371371,www.di.be,Commerce
BE,50.8893555,3.4572608,pietercallewaert.weebly.com,Facility
BE,50.6431668,6.0098637,www.x2o.be,Commerce
BE,51.1559688,5.3924769,dezorghoek.be,Facility
BE,50.668967,5.5482825,stores.medi-market.be,Commerce
BE,51.4161445,4.7632428,www.selexion.be,Commerce
BE,50.9203615,3.8542981,www.vastgoed-ff.be,Facility
BE,50.7221347,4.2317939,www.halle.be,Facility
BE,50.9757811,3.6563192,horecare.be,Commerce
BE,51.1968874,3.2166068,exki.be,Facility
BE,51.0280592,4.4782179,www.3paardekens.be,Facility
BE,51.4805171,5.0773101,www.kempischelandgoederen.nl,Unknown
BE,50.972985,5.0701549,www.kinepraktijkdiest.be,Facility
BE,49.6502188,5.8235233,lemoutonnoir.be,Facility
BE,51.2121089,5.423369,www.argenta.be,Commerce
BE,49.8315693,5.7389845,www.mauvaisegrainecuisine.be,Commerce
BE,51.1503244,5.8175035,www.debommesaar.be,Facility
BE,50.7392676,5.0281317,www.biodehesbaye.be,Commerce
BE,51.0869959,4.3611081,www.meubelen-roofthooft.be,Commerce
BE,50.736229,4.2380783,www.hildevandenberghen.be,Commerce
BE,50.7356638,2.9010107,www.cwgc.org,Facility
BE,50.858695,4.3673429,cycloparking.brussels,Facility
BE,50.8337427,4.8631278,www.gppr.be,Facility
BE,51.0522682,3.7274925,www.selinoodlebar.be,Facility
BE,51.2014231,3.327521,www.hondenkapsalonnaturel.be,Commerce
BE,50.5899005,5.8574431,www.paysdevesdre.be,Facility
BE,50.9917018,3.6488409,www.bakkerijhanssens.be,Commerce
BE,50.8752672,4.6746829,www.delhaize.be,Commerce
BE,50.7351321,4.3258818,www.alvarezcenter.be,Commerce
BE,50.8403898,4.365961,www.villo.be,Facility
BE,51.0422753,3.9247028,www.bonap.be,Commerce
BE,51.1868212,3.2107909,sites.google.com,Facility
BE,50.5901268,5.6068943,www.bonheursimple.be,Facility
BE,51.0752089,3.9766801,www.nerta.com,Facility
BE,50.4123095,5.0339599,sentiersdart.be,Facility
BE,50.8866024,3.431813,www.waregem.be,Facility
BE,50.4699226,4.9064293,www.lesjardinsdelescalier.be,Commerce
BE,51.2060006,4.4318693,hetrozehuis.be,Facility
BE,50.9966316,5.2374243,www.vandermaesen.be,Commerce
BE,51.0346796,4.4757203,www.medico.be,Commerce
BE,50.2563131,5.5968238,www.tta.be,Facility
BE,50.4134385,4.1675307,www.plusoultre.net,Facility
BE,50.9767767,3.6588747,luminello.be,Commerce
BE,51.4733044,4.8036097,www.den-boergondier.be,Commerce
BE,51.0305761,5.2793617,www.tcheusden.be,Facility
BE,50.9527509,3.1005054,www.sportoase.be,Facility
BE,50.9567056,3.297205,www.libecohomestores.eu,Commerce
BE,49.731853,5.6431119,mplux.be,Facility
BE,50.6817043,5.5273289,www.eriksbaudoin.be,Facility
BE,51.065869,3.0985134,www.koffieenmeer.be,Facility
BE,50.5624222,4.152306,www.axabank.be,Commerce
BE,51.2069065,3.2233903,www.bodegalorenas.be,Facility
BE,51.0283571,4.9770555,www.bakkerij-fierens.be,Commerce
BE,51.3391145,3.2542847,www.restaurantcaillou.be,Facility
BE,51.3150497,4.8915346,www.q8.be,Facility
BE,50.9337017,4.3734439,www.standaardboekhandel.be,Commerce
BE,51.1807831,3.5753588,www.belgiantrain.be,Facility
BE,51.2068886,2.9058594,www.gamma.be,Commerce
BE,51.302834,4.5699745,www.kruidvat.be,Commerce
BE,50.9579752,3.4835726,atelierrogerraveel.be,Facility
BE,50.6303363,4.7987162,www.lidl.be,Commerce
BE,50.7927728,4.3123858,vulpia.be,Facility
BE,50.8981079,5.3835636,wegenenverkeer.be,Facility
BE,51.117977,4.6561284,www.dekookgek.be,Facility
BE,50.5373319,5.2219024,www.wanze.be,Facility
BE,49.6360192,5.889991,www.x2o.be,Commerce
BE,51.0515256,4.7680652,www.tourenaar.be,Commerce
BE,50.5989835,5.3446856,www.unpainenavant.com,Commerce
BE,51.4023602,4.8916147,www.segersverwarming.be,Unknown
BE,51.0449522,4.0910983,www.fitnessking.be,Facility
BE,50.4508778,4.5614371,carto1.wallonie.be,Facility
BE,51.2198111,4.3974938,www.chezraoul.be,Facility
BE,50.8166345,2.759498,www.cwgc.org,Unknown
BE,50.6417651,4.7097647,www.le-laurier-be.com,Commerce
BE,50.1073351,5.4837352,www.artisanboulanger.be,Unknown
BE,50.697661,4.6597284,www.ecolededion.be,Facility
BE,50.716639,4.3976091,salonkee.be,Commerce
BE,50.8898969,3.0654978,echomoorslede.be,Facility
BE,51.0371834,4.1311362,www.metaclima.be,Facility
BE,51.2304223,2.9106581,marebello.be,Facility
BE,50.6459902,5.8067854,www.pure-sports.be,Facility
BE,51.2625927,4.5574816,www.dierenartsduthoo.be,Facility
BE,51.2197918,4.4015338,www.leonidas.com,Commerce
BE,50.6070434,3.3895352,epices-et-vous.be,Commerce
BE,51.164596,4.4511848,olvebasis.be,Facility
BE,50.9004027,5.2839177,www.molenechos.org,Facility
BE,50.8860148,4.6694159,www.qteam.be,Commerce
BE,51.1899342,4.3854487,expo.stedelijkonderwijs.be,Facility
BE,50.9854498,4.837505,www.hartetroef.be,Facility
BE,50.9744157,4.5654595,www.okay.be,Commerce
BE,51.1454387,4.4292407,www.edegem.be,Facility
BE,50.566079,6.1879956,www.eifel-barrierefrei.de,Facility
BE,50.9299894,5.3375651,www.pme-legend.com,Commerce
BE,51.289552,4.490708,www.hansanders.be,Commerce
BE,50.9557116,5.4082131,www.belgiantrain.be,Facility
BE,50.5847922,5.6469688,www.chaudfontaine.be,Facility
BE,50.9309341,5.3275497,www.belgiantrain.be,Facility
BE,50.8094355,4.3196863,www.pizzaway.be,Facility
BE,50.8542626,3.5929004,www.brandstoffen-deconinck.be,Facility
BE,51.3527091,4.3295264,www.miekeshaarstudio.be,Commerce
BE,50.692189,6.0840202,ozaki-eynatten.be,Facility
BE,51.2113792,4.4008331,www.alinfintiste.be,Facility
BE,50.7996988,4.4174664,cycloparking.brussels,Facility
BE,50.6450427,5.5746093,www.april-beauty.be,Commerce
BE,51.2289422,4.4045148,www.zilte.be,Facility
BE,50.9722738,3.2023652,www.neyrincknv.be,Commerce
BE,51.0445253,3.4085947,www.brandstoffenmaenhout.be,Commerce
BE,50.6137533,4.4505569,www.aubergeduroydespagne.be,Unknown
BE,50.8408395,5.3366397,www.vangrootloon.com,Commerce
BE,51.0928687,4.3727668,asterx.be,Commerce
BE,50.0541275,4.4918266,www.comarkt.be,Commerce
BE,51.041222,3.7445464,www.klimzaalbalance.be,Facility
BE,50.8979762,5.307184,www.hetportoal.be,Facility
BE,51.1307916,5.0927935,denthai.be,Facility
BE,51.2869646,4.5727679,www.rahc.be,Facility
BE,51.1581573,4.9878583,www.blessingstylingcastle.com,Commerce
BE,50.8651145,5.1943756,www.spar.be,Commerce
BE,50.9287702,3.8785932,bvlar.be,Facility
BE,50.4166382,3.8746689,www.trafic.com,Commerce
BE,50.8075186,3.1223961,athleticsfitness.be,Facility
BE,51.220397,3.2459736,www.brugscherugbyclub.be,Facility
BE,50.8763242,3.4158583,www.afsluitingen-de-soete.be,Facility
BE,50.6420792,5.6091677,www.gensdoutremeuse.org,Facility
BE,51.2074483,4.430953,gijbelsbakkerij.be,Commerce
BE,51.037324,3.7271505,www.outpost.be,Commerce
BE,51.2605153,3.5824807,www.sint-laureins.be,Facility
BE,50.9928336,4.5563186,www.kringeling.be,Facility
BE,51.3577695,4.3069674,www.americanlegend.be,Commerce
BE,50.9997912,3.3244923,www.mimibabytielt.be,Commerce
BE,51.06917,4.0383466,www.vpmarsupilami.be,Facility
BE,51.147937,4.9611944,skoda.verellengeel.be,Commerce
BE,50.619097,5.6530952,www.ryponet.be,Facility
BE,50.3908224,5.2801233,haveligeoule.be,Facility
BE,49.9110031,5.3537959,www.jbc.be,Commerce
BE,51.0477178,3.7217716,pastalavista.be,Facility
BE,51.4079742,4.7628043,www.multimedium.be,Facility
BE,51.0503142,5.1711495,fungroup.be,Unknown
BE,51.0388384,5.1722455,www.petteflet.be,Facility
BE,51.0477822,5.2255696,www.chitirchicken.com,Facility
BE,50.878234,4.7023328,samouraisushi.be,Facility
BE,50.4442132,5.0142862,www.cap-condroz.be,Facility
BE,51.0283003,3.7223767,oceangardengent.wixsite.com,Facility
BE,50.9400804,3.2782401,chiromeulebeke.chirosite.be,Facility
BE,50.4675352,4.8655669,www.afflelou.be,Commerce
BE,50.5014767,5.6483608,www.abyssplongee.be,Facility
BE,51.0557013,3.7228712,tasty-world.business.site,Facility
BE,51.3650176,4.8419874,www.sportcity.be,Facility
BE,50.8616545,2.8884952,www.eldis.be,Commerce
BE,51.0891344,3.8122285,www.fit-out.be,Facility
BE,51.0797181,5.0248455,www.cambio.be,Facility
BE,50.5058276,4.8019971,ecole.rhisnes.be,Facility
BE,50.6392674,5.5754929,www.epeliege.be,Facility
BE,51.3396628,3.2432047,www.instituutkelly.be,Commerce
BE,51.2556337,3.1375407,www.ebzu-airfield.be,Facility
BE,50.7397325,4.3731611,crescendo-cvo.be,Facility
BE,50.9070502,4.4274873,www.shurgard.com,Commerce
BE,50.6265524,5.5704014,www.liege.be,Facility
BE,50.8680851,4.7365021,www.imocarwash.com,Facility
BE,50.9478891,5.2041094,www.hubo.be,Commerce
BE,50.6086184,3.3896772,lortica.be,Facility
BE,49.912826,5.5671366,www.latelierponsar.be,Commerce
BE,50.8498704,4.4191221,www.woluwe1200.be,Facility
BE,51.2395225,2.96966,www.ocmwbredene.be,Unknown
BE,51.0371829,4.4863913,www.kvmechelen.be,Facility
BE,50.6401673,4.6667014,www.walhain.be,Facility
BE,51.1620655,4.9868848,www.synergiejobs.be,Facility
BE,50.7107397,3.8285825,www.amilpattes.be,Facility
BE,51.2323677,5.3331543,www.twinslommel.be,Facility
BE,50.5977709,4.3234752,www.nivelles.be,Facility
BE,50.9220942,3.2357715,www.vanhonsebrouck.be,Facility
BE,50.6829351,4.3703126,www.sushioden.be,Facility
BE,51.1848683,3.2059036,www.kotenbrugge.be,Unknown
BE,51.0338004,3.5495055,www.wijnensamverheecke.be,Commerce
BE,50.5720874,5.0029122,www.molenechos.org,Facility
BE,50.8720096,4.4034182,www.evere.be,Facility
BE,51.1253764,3.1273858,www.carl-hollevoet.be,Commerce
BE,50.3819357,5.6769792,geodata.wallonie.be,Unknown
BE,50.6474553,4.6427278,biok.be,Commerce
BE,50.2373562,4.9047258,www.belgiantrain.be,Facility
BE,50.8203293,4.3854279,www.villo.be,Facility
BE,50.7472195,4.6925875,sofico.org,Facility
BE,50.639427,5.8529279,sofico.org,Facility
BE,50.9117968,3.1953744,www.laduree.be,Facility
BE,50.8777751,4.6999015,nachtuil.weebly.com,Facility
BE,51.1657552,4.1447302,www.cremerie-francois.com,Facility
BE,50.9874124,5.0559764,hvw.fgov.be,Facility
BE,51.2908934,5.0568564,www.tantineretie.com,Facility
BE,51.1815503,2.9619091,inventaris.onroerenderfgoed.be,Facility
BE,50.9843708,3.533566,www.bel-bo.be,Commerce
BE,50.9511451,3.2907406,sites.google.com,Facility
BE,51.0738828,2.6883575,www.bel-bo.be,Commerce
BE,50.8346372,4.288924,cycloparking.brussels,Facility
BE,50.8451794,3.6069348,www.oudenaarde.be,Facility
BE,51.0997662,3.1945771,www.poweroil.be,Facility
BE,51.2569151,5.3603464,www.dewatering.be,Facility
BE,50.4776711,3.9517302,restaurant-italiano.business.site,Facility
BE,51.0863125,4.71877,www.tenkerselaere.be,Facility
BE,51.1159706,4.6449222,www.blanca-ijs.be,Facility
BE,50.8438817,4.312445,cycloparking.brussels,Facility
BE,50.8772021,4.3447588,cycloparking.brussels,Facility
BE,51.2312187,5.0879293,tabloo.com,Facility
BE,51.2041059,3.2208288,www.sintsalvator.be,Facility
BE,50.4386136,5.1223547,www.le64ohey.be,Facility
BE,50.9855513,3.5262097,www.hajp.be,Commerce
BE,50.9631449,4.218093,geecobikes.com,Commerce
BE,50.7946178,3.1952029,www.studio-u.be,Commerce
BE,50.6592936,4.5633431,www.renardetfils.be,Commerce
BE,51.1375863,2.7386929,www.marcbilliau.be,Commerce
BE,50.9956154,4.7485816,www.kippenhoekje.be,Commerce
BE,50.8697638,4.6958105,www.q8.be,Facility
BE,51.0286718,3.7260255,www.tandartspraktijk-rijckaert.be,Facility
BE,50.6041628,3.4237763,www.gamma.be,Commerce
BE,51.1967962,4.4064824,www.brusketta-antwerpen.be,Facility
BE,51.1172873,5.2631655,storelocator.lloydspharma.be,Facility
BE,51.1935394,4.0965871,sint-gillis-waas.bibliotheek.be,Facility
BE,51.1166136,4.3344067,www.hansanders.be,Commerce
BE,51.2064655,4.416427,www.hwbrabo.be,Facility
BE,50.8038759,4.9205134,www.veoliawaterst.be,Unknown
BE,50.7091197,6.0054481,www.carimport.us,Unknown
BE,50.4075357,4.4413002,www.di.be,Commerce
BE,50.9796056,3.5317134,www.rijscholenlust.be,Facility
BE,51.0771024,4.0269395,www.dentuimelaar.be,Commerce
BE,50.867467,4.9404166,www.skatespots.be,Facility
BE,51.0690894,5.0870569,www.delhaize.be,Commerce
BE,51.2150766,4.4053926,www.mercken.com,Commerce
BE,50.6418866,5.570027,www.laparenthese.be,Commerce
BE,51.2245859,2.9144322,www.synagogeoostende.be,Facility
BE,51.0662575,4.5182106,www.qualityfoodgroup.be,Facility
BE,50.8763995,4.3328468,cycloparking.brussels,Facility
BE,51.2217349,4.4207084,www.velo-antwerpen.be,Facility
BE,50.8511979,2.8886531,www.lissewal.be,Unknown
BE,51.2781099,4.4181179,www.dagbladhandeldemarkt.be,Commerce
BE,50.8776751,4.3982458,cycloparking.brussels,Facility
BE,51.1309481,4.2184852,www.fontana.be,Unknown
BE,50.848256,4.4371493,www.alaeti.be,Facility
BE,51.0865374,5.0694985,tpnverzekeringen.be,Facility
BE,51.0026916,3.8708394,www.dds-verko.be,Facility
BE,50.9430918,5.6919681,bristolshop.be,Commerce
BE,50.8705067,4.5060795,www.columbuscafe.com,Facility
BE,50.7139731,4.6049194,www.hougardy.net,Commerce
BE,51.2184662,3.2221342,www.cosmipolis.be,Facility
BE,51.1180921,4.3738252,winkel.damart.be,Commerce
BE,50.3889428,4.4045787,www.morganoptic.be,Unknown
BE,51.0008657,5.5802265,2017.dansclub-clap.be,Facility
BE,50.568254,5.5865567,www.ajtilff.be,Facility
BE,50.805155,3.1319082,www.valvan-containers.com,Facility
BE,51.1958551,4.498596,www.green-miles.com,Commerce
BE,50.8293026,3.2625776,www.degraer.com,Facility
BE,50.978665,5.1000087,www.medilifting.be,Facility
BE,51.2262502,5.4308625,www.nmk.be,Facility
BE,51.0436833,4.8247297,harmonie6.be,Facility
BE,50.8097825,4.9254339,www.championgym.be,Facility
BE,50.9830347,5.4893249,www.c-mine.be,Facility
BE,51.3101197,3.1522482,www.dewielen.be,Facility
BE,50.6837045,6.0505109,sofico.org,Facility
BE,50.86892,3.440379,www.debels.com,Commerce
BE,50.7711571,3.3965973,sbdprojects.be,Commerce
BE,50.4396662,4.896884,www.bcerpent.be,Facility
BE,51.2242743,4.4043481,antigoonartsen.be,Facility
BE,51.225239,4.4088728,www.mundosalons.com,Commerce
BE,51.0264958,4.4824326,www.babyfloat.be,Facility
BE,51.0129647,5.5960349,www.legerstockhendriks.be,Commerce
BE,50.2271108,5.3253988,www.vivalia.be,Facility
BE,51.257535,5.0993489,www.bosmansvastgoed.be,Facility
BE,50.8940724,3.4265004,waregemtielt.vivesgraduaatvpk.be,Facility
BE,50.9070034,4.8738448,www.torfs.be,Commerce
BE,51.2017968,3.3273881,www.pc-matic.be,Commerce
BE,51.0653394,5.0914234,www.omea.be,Commerce
BE,51.0312938,5.3712246,www.lornoir.be,Facility
BE,50.7808352,5.4651332,teseum.be,Facility
BE,50.8466789,4.3123817,argattidegamond.be,Unknown
BE,51.3878672,4.7413287,www.delaps.be,Unknown
BE,51.0248021,4.5395904,www.liekensoptics.be,Commerce
BE,50.7954064,5.6732095,tchorski.morkitu.org,Facility
BE,51.0928328,3.8198031,www.debruycker-keurslager.be,Commerce
BE,51.171307,4.4511792,www.action.com,Commerce
BE,51.0659012,3.6958012,duckduckgo.com,Facility
BE,51.3267107,3.29606,www.emex.be,Commerce
BE,51.0781998,4.0936652,www.wegrio.be,Facility
BE,51.1284687,4.4731005,www.supermarktnagels.be,Commerce
BE,50.9453915,5.1031333,easycomputer.be,Commerce
BE,50.8837953,3.2321831,www.ivio.be,Facility
BE,51.2494802,4.6039258,www.vandenborre.be,Commerce
BE,51.0285554,4.4801266,immovos.be,Facility
BE,50.9793558,4.0810268,www.goestewieze.be,Facility
BE,50.6754981,5.4390029,affleuredesoieblog.wordpress.com,Commerce
BE,50.9748461,5.2722741,www.zummerheem.be,Facility
BE,50.965793,5.2828092,www.carcheckup.be,Commerce
BE,51.1004667,4.3483582,www.dekringwinkel.be,Commerce
BE,50.6476124,4.2624475,www.dabaingiomaria.be,Facility
BE,50.5973363,4.3260834,www.loiseau-zajega.be,Facility
BE,51.2220122,5.4276405,www.dvvoverpelt.be,Facility
BE,50.4061578,4.4421077,www.manufacture-urbaine.com,Facility
BE,50.9293509,5.3381431,www.wasbar.be,Facility
BE,51.22586,2.9240511,www.frituurhazegras.be,Facility
BE,50.7459417,4.2494439,www.carbomat.be,Facility
BE,50.7656045,2.7591122,detereplekke.fr,Facility
BE,51.1640883,5.0414313,www.brochetteriebruul.be,Facility
BE,50.4728805,4.4471028,www.aceparking.be,Facility
BE,50.9866159,5.1744525,www.beukenhoflummen.be,Facility
BE,50.8794175,4.7090307,www.adv-advocaat.be,Facility
BE,50.4675314,4.4396072,www.rackstore.be,Commerce
BE,51.197983,4.4292658,www.politieantwerpen.be,Facility
BE,51.1663983,4.0775574,en.stalguldensporen.be,Facility
BE,51.1136005,5.0237948,www.tiwthai.be,Facility
BE,50.7069776,5.0803019,www.plopsaquahannutlanden.be,Facility
BE,51.0223684,3.718105,stad.gent,Facility
BE,50.6787498,5.3207531,www.belgiantrain.be,Facility
BE,50.7275236,4.593603,www.delhaize.be,Commerce
BE,51.1951526,3.5443672,yeti-eeklo.be,Facility
BE,51.2263613,2.9237529,www.flexpoint.be,Facility
BE,50.9088229,3.6176941,www.mcdonalds.be,Facility
BE,51.0703515,4.0498495,lna-fietsen.be,Commerce
BE,51.2296413,5.4346152,www.easyfitneerpelt.be,Facility
BE,50.741974,4.9650731,geodata.wallonie.be,Unknown
BE,50.7739834,4.2680904,www.shurgard.com,Commerce
BE,50.8863437,4.670017,www.q8.be,Facility
BE,51.3251372,4.9517615,secundair.heilig-graf.be,Facility
BE,51.0609627,5.1586371,www.bioracer.be,Facility
BE,50.4416413,4.615647,carto1.wallonie.be,Facility
BE,50.6789002,4.7021769,restaurantfirewood.be,Facility
BE,50.9234468,4.4525234,brasserietaste.be,Facility
BE,51.1045558,3.1587549,www.zedelgem.be,Facility
BE,50.5458,5.8271685,www.newmicrofil.com,Unknown
BE,51.2060003,4.426973,www.domeweb.be,Facility
BE,51.1494936,4.1268562,www.esso.be,Facility
BE,49.6722455,5.8140633,www.hers.be,Facility
BE,50.9099216,4.1973756,www.restaurantmadeinitaly.be,Facility
BE,50.6872327,5.611358,sofico.org,Facility
BE,50.8917946,5.1144682,www.geetbets.be,Facility
BE,51.4614804,4.4556145,www.essen.be,Commerce
BE,50.6061462,3.3900663,www.kruidvat.be,Commerce
BE,50.9086777,4.4045734,www.prodim-valves.be,Facility
BE,51.2164144,4.4093343,www.grandcafehorta.be,Facility
BE,50.8840154,3.4274826,www.solidaris-vlaanderen.be,Facility
BE,50.8425971,5.5499357,www.tscholierke.be,Facility
BE,51.1513078,4.8525541,wegenenverkeer.be,Facility
BE,51.0578847,3.741871,barber-coupecoupe.com,Commerce
BE,51.0809489,3.7706419,www.cafedehoeve.be,Facility
BE,50.9806452,4.8217674,winkels.carrefour.eu,Commerce
BE,50.676393,5.5776768,sofico.org,Facility
BE,50.7886856,4.2991007,www.restauration-nouvelle.be,Facility
BE,51.0159541,3.6573772,engelsramen.be,Commerce
BE,51.0370029,3.7121358,www.lekkergec.com,Facility
BE,50.0811675,5.1136121,www.latruitedargentwellin.be,Facility
BE,50.7156843,4.6100774,www.rituals.com,Commerce
BE,50.6382307,5.4450141,www.liegeairport.com,Facility
BE,50.8299384,4.049572,www.ninoveauto.be,Commerce
BE,51.2312247,4.4487655,www.politieantwerpen.be,Facility
BE,50.8990314,4.3252036,www.ah.be,Commerce
BE,50.8745461,4.3853742,www.villo.be,Facility
BE,50.8160922,3.2981165,www.butchtailors.com,Commerce
BE,50.9970777,3.1256692,www.dominiek-savio.be,Facility
BE,50.6639158,5.0905256,www.kruidvat.be,Commerce
BE,51.0714675,3.1050486,www.torhout.be,Unknown
BE,50.8214838,4.5009062,www.katervuren.be,Facility
BE,50.9175442,3.2787222,www.jolineproducts.be,Commerce
BE,51.1511852,4.9046899,dsmkeukens.be,Commerce
BE,50.5014873,4.7262482,www.scam-sc.be,Facility
BE,50.6713993,4.6168787,www.riverwoods.net,Commerce
BE,50.3964531,3.7792803,la-piazzetta.be,Facility
BE,51.2167712,4.3958055,mico-and-jon.com,Facility
BE,50.4931031,5.0477182,cherimont.com,Facility
BE,50.2189478,5.2945045,sepultures.marche.be,Facility
BE,50.7241163,4.872921,lahalleauxsaveurs.be,Commerce
BE,50.9100155,4.5130129,www.argenta.be,Commerce
BE,51.0766307,3.5356854,www.dokterbinge.be,Facility
BE,50.7554152,4.6990345,sofico.org,Facility
BE,49.7284966,5.2412416,www.laforgerie.be,Facility
BE,50.0929953,5.1363226,geodata.wallonie.be,Unknown
BE,49.9065098,5.5646909,www.littlethingscreations.com,Commerce
BE,51.0740562,3.7761843,www.x2o.be,Commerce
BE,51.1241921,5.0734249,www.meerhout.be,Facility
BE,50.9215586,3.4445988,www.zulte.be,Facility
BE,51.0917152,5.793685,www.action.com,Commerce
BE,51.0486836,3.7212214,west-site.com,Commerce
BE,50.9981041,3.8846328,www.leenbakker.be,Commerce
BE,49.680804,5.8170098,ibeaken.mobi,Facility
BE,51.2879633,5.1578179,www.natuurenbos.be,Facility
BE,50.9090659,4.1978139,spaghetticafe.be,Facility
BE,51.0116574,3.6406915,www.carglass.be,Commerce
BE,50.9918043,3.8457007,www.publiabs.be,Unknown
BE,51.0192265,3.7636478,www.begrafenissenjacobs.be,Commerce
BE,50.9015879,4.0072701,www.teroudeposte.be,Facility
BE,50.5989948,4.439383,www.genappe.be,Unknown
BE,50.3524555,5.1299514,www.sentiersdart.be,Facility
BE,50.7427926,3.5938441,www.huyghemachiningagency.be,Unknown
BE,51.0582196,3.7222621,www.rootsgent.be,Facility
BE,50.6638026,5.5614351,www.policeliege.be,Facility
BE,50.9193689,5.4249136,www.jo-li.be,Facility
BE,50.5255095,3.6474921,st-francois.be,Facility
BE,50.3545549,5.2411714,www.havelange.be,Facility
BE,50.6299555,5.5686709,www.leblonden.be,Facility
BE,50.8766535,4.7537383,www.scoutsbovenlo.be,Facility
BE,51.049355,5.1717274,www.gielennv.be,Unknown
BE,50.5104436,5.5592082,www.molenechos.org,Facility
BE,51.2142041,3.191835,www.halvemaan.be,Facility
BE,49.6868515,5.7372536,www.belgianscrapterminal.com,Facility
BE,50.4325979,3.6847564,www.hensies.be,Facility
BE,50.9911262,4.8403908,www.knoet.be,Facility
BE,50.7861103,5.5588466,www.waterburcht.com,Facility
BE,50.8427223,4.3461579,cycloparking.brussels,Facility
BE,50.641896,5.5761754,minthealthyfood.com,Facility
BE,51.2158186,4.4018582,fanssite.be,Commerce
BE,51.053019,4.3494189,www.gastronello.be,Unknown
BE,51.1685854,4.4906786,www.faes.be,Commerce
BE,50.8905632,3.437195,www.cassoulet.be,Commerce
BE,50.8899992,3.4302507,www.dekoetsier.be,Facility
BE,51.244358,4.4248923,www.belgiantrain.be,Facility
BE,51.0282001,4.0988261,dewolfdore.be,Facility
BE,50.6426799,5.5702718,www.boulangeriegeorgescrosset.be,Commerce
BE,51.0493601,4.8067801,www.samlambrechts.be,Commerce
BE,51.0463082,3.7222972,moodvintage.be,Commerce
BE,51.0555396,3.7232237,www.steamywindows.be,Facility
BE,50.81604,4.3380603,cycloparking.brussels,Facility
BE,50.4614856,4.9221797,carpool.be,Facility
BE,50.8658702,4.3781902,www.aldi.be,Commerce
BE,50.6343308,5.7570939,sofico.org,Facility
BE,50.872596,3.6367901,www.planten-debock.be,Facility
BE,51.0978445,5.0783195,www.groepalelek.be,Commerce
BE,51.0503104,4.062612,www.pañ.be,Facility
BE,51.1162521,5.2619841,obaleopoldsburg.be,Facility
BE,50.9831909,5.0629774,www.debadmeester.be,Facility
BE,51.0838025,4.8058105,www.tennisclub-sportiva.be,Facility
BE,50.8855074,4.7056311,www.re-sult.be,Commerce
BE,50.7188677,5.569346,www.duvanco.be,Commerce
BE,50.6462796,5.5824877,www.liege.be,Commerce
BE,51.1681517,5.0480563,www.freshfood.be,Commerce
BE,50.5352259,5.8747957,www.jeancokaiko.be,Facility
BE,49.572427,5.7894775,www.renault-warling.be,Commerce
BE,51.2299416,5.2148455,www.tkristallijn.be,Facility
BE,51.0542717,3.7256122,artevelde.be,Facility
BE,50.6029142,5.4837733,be.casashops.com,Commerce
BE,50.6181359,5.6609061,leforem.be,Facility
BE,50.9547201,4.4520469,www.lda.be,Unknown
BE,50.829432,3.2607125,www.dobber.life,Facility
BE,51.2227713,4.4006957,www.refillantwerpen.be,Facility
BE,50.645237,4.2128641,www.sport-ittre.be,Facility
BE,51.1518231,4.9868134,tuinhiergeel.weebly.com,Unknown
BE,51.2516666,5.3834544,www.lommel.be,Unknown
BE,50.7150773,4.6583869,tchoupyicecream.be,Facility
BE,51.0900225,3.4473414,tweyes.be,Commerce
BE,51.2331535,4.5605723,www.panos.be,Facility
BE,51.1887896,4.4331766,www.alpheusbistro.be,Facility
BE,51.1407366,4.7469859,www.maes-oil.be,Facility
BE,51.0610657,5.1532235,www.iwaki.be,Unknown
BE,50.8159381,4.3388956,www.vandenberg.be,Commerce
BE,51.0048295,4.4873147,www.okay.be,Commerce
BE,50.8465408,4.3470905,parcoursstreetart.brussels,Facility
BE,51.2408899,4.9695595,www.optiekdevel.be,Commerce
BE,51.2283701,4.5259045,www.bierhandeldekroon.be,Commerce
BE,51.0579184,3.7237842,himalayarestaurant.be,Facility
BE,50.6001665,4.336098,www.lebric.be,Commerce
BE,51.0627839,3.697822,morgen-bakkerij.be,Commerce
BE,50.8387432,4.3611798,www.fabianafilippi.com,Commerce
BE,50.8008021,4.3696769,mfa.gov.hu,Facility
BE,50.9300496,5.6880827,www.shoko.be,Facility
BE,50.9772254,3.5332611,www.marketdeinze.be,Commerce
BE,50.7464716,5.5747098,sofico.org,Facility
BE,51.1613991,4.9908586,caross.be,Facility
BE,50.4128324,4.1666623,salonkee.be,Commerce
BE,50.7169433,4.6153595,www.expertliterie.be,Commerce
BE,50.6493968,4.5656596,www.greenclothes.be,Commerce
BE,50.5546686,4.4523067,geodata.wallonie.be,Unknown
BE,50.9225754,3.2283535,www.happy-living.be,Unknown
BE,50.0472639,4.312543,store.total.be,Facility
BE,51.2232581,3.2340439,www.dirksplace.be,Commerce
BE,51.1984895,3.2404555,bakkerijkerkhove.be,Commerce
BE,51.1422593,4.8408715,www.cheffkebap.be,Facility
BE,50.92665,4.4260254,www.diasboulangerie.be,Commerce
BE,50.9998815,3.3259816,www.wouterskwaliteitsvis.be,Commerce
BE,51.2396814,2.9686875,www.dekust.be,Facility
BE,50.719844,6.0132199,www.galmeibad.be,Facility
BE,50.4469587,5.7993742,www.life-elia.eu,Facility
BE,50.8171907,4.410681,cycloparking.brussels,Facility
BE,50.845033,3.763339,www.natuurpunt.be,Facility
BE,49.8070831,5.5399705,www.fetedubonheur.be,Facility
BE,50.9119438,4.6651489,www.tomandco.com,Commerce
BE,50.6454443,5.5721355,www.dominos.be,Facility
BE,49.9113226,5.3538362,www.pointcarre.be,Commerce
BE,50.4038795,3.6837596,fsspx.be,Facility
BE,50.9156332,4.8073053,www.tastysushi.be,Facility
BE,51.045822,3.4086835,www.biebuyck.be,Commerce
BE,50.7251095,3.7290586,www.accueilchampetre.be,Facility
BE,51.0523441,3.7273881,www.galleryroom8.com,Facility
BE,50.7960907,4.6494112,www.poneyclubpicadero.be,Facility
BE,50.9075114,5.0571576,ksakortenaken.com,Facility
BE,50.9717914,4.4794955,www.nieuwsblad.be,Facility
BE,50.8200189,4.3308734,cycloparking.brussels,Facility
BE,51.1397629,4.7590321,jeugdateliermatsijs.jimdo.com,Facility
BE,51.1308693,5.4581949,www.mijnspar.be,Commerce
BE,50.7747449,3.1953961,www.heatit.be,Facility
BE,50.7666254,4.4688699,www.argenta.be,Commerce
BE,51.2283759,4.4016223,maisonmason.be,Facility
BE,50.9832753,5.0554481,www.ksdsintjan.be,Facility
BE,50.6457784,5.6032819,www.restaurantcaruso.be,Facility
BE,51.1085631,5.7844999,www.plantenkwekerij-sintjansberg.be,Commerce
BE,50.2640071,5.054825,www.cabinesdeciney.be,Unknown
BE,50.6178153,3.3419969,ideta.be,Unknown
BE,50.700861,3.5809533,lesfleursacouper.be,Facility
BE,50.4098319,5.0573474,www.tiges-chavees.be,Unknown
BE,51.0949823,4.3677363,dats24.be,Facility
BE,51.2189985,5.275551,www.natuursteen-vanham.be,Unknown
BE,50.8769291,4.3824362,www.fondation-charcot.org,Unknown
BE,50.4528167,4.6943936,www.belgiantrain.be,Facility
BE,51.2689258,3.2082631,www.mobilmat.be,Facility
BE,50.8957694,4.7052949,www.sibelcarrosserie.be,Commerce
BE,51.2375989,3.2178553,www.eterno.com,Facility
BE,50.9319152,5.3974181,www.valiant.be,Unknown
BE,51.0424185,3.8814311,bakkerijaernoudt.be,Facility
BE,51.1789809,3.2199791,www.apotheekgobert.be,Facility
BE,51.2181128,5.4207007,www.kwanten-vanesch.be,Commerce
BE,50.6682172,5.1709629,jesuishesbignon.be,Facility
BE,50.8144658,5.6700845,www.hotellimburgia.be,Facility
BE,51.2172369,4.3995916,www.modenatie.com,Unknown
BE,51.2292193,4.4118556,www.axxes.com,Facility
BE,50.2294608,5.1386662,www.domainedechevetogne.be,Facility
BE,50.1966269,4.5351529,www.pointcarre.be,Commerce
BE,49.8996748,5.0253321,www.airbnb.com,Facility
BE,51.2688947,5.0828659,www.gbretie.be,Facility
BE,49.9992662,5.7130515,www.tondeur-mouton.be,Facility
BE,50.8425352,4.3828386,www.di.be,Commerce
BE,50.8608589,4.3391558,www.villo.be,Facility
BE,50.8586536,4.3784721,cycloparking.brussels,Facility
BE,50.6957972,5.6213261,www.collinet.eu,Facility
BE,50.6063928,3.3852378,www.superfrites.be,Facility
BE,50.4091457,4.2112984,autosystem.be,Commerce
BE,50.7846338,2.9989925,www.newclassichomes.be,Unknown
BE,51.2268818,4.4054976,www.velo-antwerpen.be,Facility
BE,50.599958,4.3265805,drhubertbertrand.wordpress.com,Facility
BE,51.0762592,3.9802625,ambatec.be,Unknown
BE,49.5593701,5.4996092,le-rivage.be,Facility
BE,50.1622357,5.2413999,www.malagne.be,Facility
BE,50.8461879,4.3816511,app.cycloparking.brussels,Facility
BE,51.1580376,4.7962001,www.vdb-prolians.be,Facility
BE,50.9466462,3.1254333,www.pools.be,Commerce
BE,51.3146433,3.1279707,verony.be,Commerce
BE,50.9591866,3.5986297,sites.google.com,Facility
BE,51.1392221,5.1527415,hoorcentrumaerts.be,Commerce
BE,51.0637936,3.6919867,deboomhutgent.be,Facility
BE,50.8195235,3.3206821,kookboetiek.be,Facility
BE,51.0785871,5.7586103,raadmaekers.be,Commerce
BE,50.8637055,4.373041,angelbroderie.be,Commerce
BE,51.1489151,2.7282761,www.seascouts-nieuwpoort.be,Facility
BE,51.4410746,4.9250026,hvbaarle.com,Facility
BE,51.2971003,4.6913817,www.pearle.be,Commerce
BE,51.0789776,4.718353,villapizzetta.be,Facility
BE,51.0344125,3.7086893,fietsambassade.gent.be,Facility
BE,51.2149992,4.2425955,www.action.com,Commerce
BE,50.6362453,5.7450828,sofico.org,Facility
BE,51.0306617,5.2671182,avtheusdenzolder.be,Facility
BE,51.3141726,4.8565869,het-artsenhuis.be,Facility
BE,50.614523,5.8356869,www.restaurantlachapellerie.be,Facility
BE,50.6394288,5.5729919,www.ninjaramen.be,Facility
BE,50.2905447,6.2648475,voies-hydrauliques.wallonie.be,Facility
BE,50.8002204,5.203181,www.lindebrings.be,Facility
BE,50.6431379,4.916453,helimagin.be,Facility
BE,50.4737043,4.863597,www.traiteurgeraldine.be,Facility
BE,50.8401448,3.2351584,www.devacycling.be,Commerce
BE,51.3972932,4.7537813,www.sportoase.be,Facility
BE,50.6709362,5.5465248,www.cashconverters.be,Commerce
BE,51.0862967,3.4497852,www.magnifiqueaalter.be,Commerce
BE,50.8879596,4.3391785,cycloparking.brussels,Facility
BE,50.2675711,5.4467128,www.lejacquemart.be,Facility
BE,51.021022,3.7770157,www.pizzeria-da-toto.be,Facility
BE,51.1051537,3.9898338,www.ago.jobs,Facility
BE,51.0015751,3.6427477,notariaatdepinte.be,Facility
BE,50.9429694,5.1606319,www.herk-de-stad.be,Facility
BE,50.3972591,4.4195203,www.resto-luca-papa.be,Facility
BE,50.9800972,4.9767736,www.dewildeman.com,Commerce
BE,51.2136994,3.2476249,isola-bella.be,Facility
BE,50.554888,4.1052784,www.morleghem-blondiaux.be,Unknown
BE,51.0937672,3.017872,ichtegem.bibliotheek.be,Facility
BE,50.4842596,5.7012595,www.r-hotel.be,Facility
BE,50.7950067,3.1989112,www.podologierecour.be,Facility
BE,50.8273322,3.2669812,www.l-osteria.be,Facility
BE,50.6187911,5.5690678,www.labergeriecointe.com,Facility
BE,50.8132894,5.1652831,www.kruidvat.be,Commerce
BE,51.2292158,4.43241,de-veehandel.be,Facility
BE,50.7687388,5.4647833,www.dreamland.be,Commerce
BE,50.52341,5.2171201,www.jbc.be,Commerce
BE,51.0726775,4.0534155,www.bradycorp.com,Unknown
BE,50.8798339,4.7059812,www.swarovski.com,Commerce
BE,50.7567593,2.8556108,www.cwgc.org,Unknown
BE,50.6317189,5.7349828,be.babor.com,Commerce
BE,51.0482407,3.764347,wouw.org,Facility
BE,50.8631455,4.6903709,www.groeneboog.be,Facility
BE,49.7525157,5.7686446,www.egliseinfo.be,Facility
BE,50.979956,3.5326086,www.archid.be,Facility
BE,50.9917624,5.2779584,www.soete-wey.be,Facility
BE,51.2647595,4.462121,sleeplife.be,Commerce
BE,50.608451,3.3877093,www.korrigan.net,Commerce
BE,50.8085632,4.1648626,www.lennik.be,Unknown
BE,50.9201629,4.4260507,www.frituur4you.be,Facility
BE,51.047448,3.7181982,scholen.stad.gent,Facility
BE,50.8039906,4.3495248,www.villo.be,Facility
BE,51.2281495,5.3169513,www.visaversa.net,Commerce
BE,50.8851748,4.6925559,www.lampeke.be,Facility
BE,49.610775,5.8132597,www.action.com,Commerce
BE,51.4313265,4.5136509,www.maatjes.be,Unknown
BE,51.0485269,3.7272299,www.urbanoutfitters.com,Commerce
BE,51.1104623,5.7843047,www.chocolaterie-bonaparte.be,Commerce
BE,51.0768457,4.2828913,www.desampan.be,Facility
BE,50.6128483,5.5943539,www.ecolesteloistremi.be,Facility
BE,50.8551596,4.3718236,sjtn.brussels,Facility
BE,50.5863231,5.5039735,www.ddg-coiffure.be,Commerce
BE,51.2135062,4.4239873,www.lidl.be,Commerce
BE,51.1395568,4.8577366,www.olen.be,Facility
BE,50.7916427,4.3330213,cycloparking.brussels,Facility
BE,50.9196199,3.1753166,focus-wtv.be,Facility
BE,51.2787346,3.0316565,www.dehaan.be,Commerce
BE,51.0613312,4.4588039,www.landrovermechelen.be,Commerce
BE,51.0616591,3.7976076,dronap.be,Facility
BE,50.6302247,5.9797095,linstantdivin.be,Commerce
BE,50.8922156,5.5605395,www.molenechos.org,Unknown
BE,51.1256628,3.9799609,www.brasserie-julocke.be,Facility
BE,51.1425026,4.6280706,bisterveld.be,Facility
BE,50.7750483,3.4763851,www.garagebaert.be,Commerce
BE,51.0639882,3.4572137,www.vleeshandel-dewaele.be,Facility
BE,51.1616573,4.9981243,kunstacademie.geel.be,Facility
BE,51.1297751,3.3230149,www.elektriciteitvanneste.be,Commerce
BE,50.6447706,5.5792206,www.liege.be,Commerce
BE,51.2167723,4.4057045,www.hugoboss.com,Commerce
BE,50.6694232,3.8691516,www.bestwesternhorizon.be,Facility
BE,51.1374376,2.9198153,www.deratatouille.com,Facility
BE,51.1816087,3.655831,inventaris.onroerenderfgoed.be,Facility
BE,49.7965934,5.0650684,semois-kayaks.be,Facility
BE,50.6899858,4.6171099,carpool.be,Facility
BE,51.1332994,4.3881559,www.kbc.be,Commerce
BE,50.9066443,4.6701845,bakkersonline.be,Commerce
BE,51.0836635,4.5130495,www.depollepeltc.be,Facility
BE,50.67008,4.6153221,www.lezap.be,Commerce
BE,50.9870145,3.3346602,www.aveve.be,Commerce
BE,50.7140091,3.5791414,www.maes-oil.be,Facility
BE,50.0712977,4.4751087,www.cm-tourisme.be,Facility
BE,50.9303735,5.3378043,www.hasselt.be,Facility
BE,50.6898914,5.581463,www.alboplast.com,Commerce
BE,50.7469556,3.2370483,le-petit-monde.be,Facility
BE,49.5641341,5.8223815,maisons.croix-rouge.be,Facility
BE,51.0448064,3.7240268,www.eetcafebluesette.be,Facility
BE,51.0975935,4.1290006,www.faistakeaway.be,Facility
BE,50.7333574,4.2303832,www.c-and-a.com,Commerce
BE,50.976373,3.3708492,www.natuurenbos.be,Facility
BE,50.8512175,4.3963797,www.villo.be,Facility
BE,51.1506938,4.9021872,www.beterbed.be,Commerce
BE,50.9001122,4.2809868,www.denoudenbelg.be,Facility
BE,50.1869543,5.3690721,swasa.be,Commerce
BE,51.2076391,3.2262802,www.torturemuseum.be,Facility
BE,51.311834,4.8657124,www.vanraak.be,Facility
BE,50.923373,3.9671481,www.agrotron.be,Commerce
BE,51.3430177,3.2874791,www.michellespubknokke.be,Facility
BE,51.2090935,3.446886,www.dailyfret.be,Commerce
BE,50.6802855,5.4693537,hangar86.be,Commerce
BE,51.1275173,5.0086801,www.geel.be,Facility
BE,50.8600084,4.3076813,www.villo.be,Facility
BE,50.7311554,4.2306751,lezze.be,Facility
BE,50.4250018,5.1931967,sentiersdart.be,Facility
BE,51.1733365,4.7489798,wafstore.be,Commerce
BE,51.0994059,5.1428574,www.ham.be,Unknown
BE,51.2042009,3.4693223,stores.ixina.be,Commerce
BE,50.9094821,3.3699842,www.wielsbeke.be,Facility
BE,50.9399832,5.3519738,www.softwashexpress.be,Facility
BE,51.0479914,4.0907584,www.dhondt-nv.be,Commerce
BE,50.8920056,4.6910433,www.bikerepublic.be,Commerce
BE,50.9589342,3.387041,inventaris.onroerenderfgoed.be,Unknown
BE,50.962753,3.1197872,www.leenbakker.be,Commerce
BE,50.7702726,3.8882892,www.hondenschoolherleving.be,Facility
BE,50.9142818,4.4384145,slagerijlens.be,Commerce
BE,50.5949506,4.3386959,www.dema.be,Commerce
BE,50.9281574,4.425837,vilvoptique.be,Commerce
BE,51.1279355,4.4532327,gostowijnproeverij.wixsite.com,Facility
BE,50.7362256,4.2374881,www.tsoethuys.be,Facility
BE,50.5237548,5.8023718,www.theux.be,Unknown
BE,49.7266482,5.80893,www.egliseinfo.be,Facility
BE,50.220304,5.3272826,www.kro.be,Commerce
BE,50.6186632,5.5879606,www.helmo.be,Unknown
BE,50.9054456,4.8724725,pronti.be,Commerce
BE,50.9595561,4.2353979,www.optiekinion.be,Commerce
BE,50.9480329,3.0976495,www.toyota.be,Commerce
BE,51.1044624,5.1861428,www.fetishclub78.be,Facility
BE,50.4676048,4.858507,lopera.metro.rest,Facility
BE,50.8205773,4.3442292,cycloparking.brussels,Facility
BE,51.3132988,3.1317026,www.moanapoke.be,Facility
BE,51.1726991,4.7422837,www.dierenartsencentrumdiamant.be,Facility
BE,50.9853287,5.0502274,www.infrax.be,Unknown
BE,51.2719549,3.032417,www.frituurmimi.be,Facility
BE,51.1547499,5.5717234,www.molenechos.org,Facility
BE,50.7139361,4.6136672,salon.lorealprofessionnel.be,Commerce
BE,51.0193011,4.2427099,www.broodatelierbrent.be,Commerce
BE,50.7940488,3.1241171,sint-joris.net,Unknown
BE,51.0432529,3.9805667,beleefberlare.be,Facility
BE,50.6935346,5.6204814,ibgraf.com,Facility
BE,50.4775971,5.116096,www.moulindekevret.be,Facility
BE,50.8618331,4.4249421,cycloparking.brussels,Facility
BE,50.6637715,5.0901397,www.bel-bo.be,Commerce
BE,50.9822464,3.527929,www.new-jewel.be,Commerce
BE,50.7886632,3.2034482,www.rscautomobile.com,Unknown
BE,51.0783824,4.7237954,www.gamma.be,Commerce
BE,50.8195668,5.1982432,www.gamma.be,Commerce
BE,51.214915,4.4627754,www.zilvermuseum.be,Unknown
BE,51.0653398,4.5184224,www.thefoodhub.be,Facility
BE,50.8741134,4.3415064,savonnerie.be,Facility
BE,50.945941,3.4002557,inventaris.onroerenderfgoed.be,Unknown
BE,51.1750585,4.8337607,www.kosh.be,Facility
BE,50.4483472,4.8256586,cyclescammaerts.be,Commerce
BE,51.4962623,4.7758039,meersel-dreef.be,Facility
BE,50.9798495,3.8015392,www.belgiantrain.be,Facility
BE,51.1285432,3.324472,www.koffiehuisffier.be,Facility
BE,50.8590383,4.3477272,www.kaaitheater.be,Unknown
BE,50.9895865,4.8400759,www.sjca.be,Facility
BE,50.6609378,5.5999736,www.isosl.be,Unknown
BE,51.2890491,4.4897378,www.boekenvoordeel.be,Commerce
BE,51.1721191,5.5797666,www.bocholterbrouwerijmuseum.be,Facility
BE,51.1772778,4.8315036,tassetout.be,Facility
BE,50.8146784,3.1866971,www.dvvscherpereel.be,Facility
BE,51.147205,4.5579902,www.van-hove-finefood.be,Unknown
BE,50.7948446,3.1222751,www.selexion.be,Commerce
BE,50.908343,4.4021267,keolis.be,Facility
BE,49.8098374,5.008234,aupetitbengneur.com,Facility
BE,51.0328466,4.4714946,ecoso.be,Commerce
BE,50.8131167,3.9219847,www.weerstation-smeerebbe-vloerzegem.be,Facility
BE,51.2027997,3.2245577,www.bistrobarboreas.be,Facility
BE,51.1604505,4.6075209,www.the-oar.be,Unknown
BE,50.4377108,4.9123364,www.locamat.be,Commerce
BE,50.7408142,3.5075837,www.alfametal.be,Facility
BE,50.938637,5.3522891,www.luxauto.be,Facility
BE,50.8456233,4.3559359,www.parcoursbd.brussels,Facility
BE,51.4435448,4.7349537,www.kloostermeer.be,Unknown
BE,50.5984515,4.326722,impressionsdyves.com,Commerce
BE,51.0752598,4.7259262,www.hema.be,Commerce
BE,50.8550914,4.4006712,www.vandenborre.be,Commerce
BE,50.9990491,3.3268991,lingerie-di-donna.myshopify.com,Commerce
BE,51.1411548,4.4396983,www.essent.be,Unknown
BE,50.8429552,4.3687007,www.accessibletourism.org,Facility
BE,51.0089718,3.6327297,bakkerijvanhecke.be,Commerce
BE,50.4477484,3.8195241,www.saint-ghislain.be,Facility
BE,50.8111222,4.9229077,www.colruyt.be,Commerce
BE,49.9206265,5.5818497,www.egliseinfo.be,Facility
BE,51.0318255,3.797577,www.kfcheusden.be,Facility
BE,50.768851,5.024532,kapelletjes.be,Facility
BE,50.9638145,3.1199083,www.juntoo.be,Commerce
BE,50.500702,4.2327808,geodata.wallonie.be,Unknown
BE,51.1048518,2.6014145,pannebaaltje.be,Facility
BE,50.3879532,5.2379244,lecomtefossion.be,Unknown
BE,50.9938819,5.0678505,www.aposite.be,Facility
BE,51.062952,4.8241326,www.famwines.be,Commerce
BE,50.9548904,4.2356323,www.huisartsenwachtpostnwb.be,Facility
BE,51.0609811,4.7001248,www.steenhouwerijeggers.be,Facility
BE,50.9431073,5.3589125,www.vancalster-vloeren.be,Commerce
BE,51.0264285,4.1139752,www.azsintblasius.be,Facility
BE,51.0612904,4.7869579,www.pallieterhoeve.be,Facility
BE,50.5662986,4.6886063,www.boortmalt.com,Facility
BE,50.952574,4.4500342,www.beukelaers.be,Facility
BE,50.608236,4.450055,www.automotorsrent.be,Facility
BE,50.4232804,3.8431493,www.lecomtepsy.be,Facility
BE,50.8939253,4.3320454,www.villo.be,Facility
BE,51.039929,5.7322252,dilserseetcafe.be,Facility
BE,51.1093174,3.9657267,www.colruyt.be,Commerce
BE,50.7041498,5.8585553,www.aubel.be,Facility
BE,51.2627624,4.5552629,www.schilde.be,Facility
BE,51.2156916,4.4075927,www.baltimorebloemen.be,Commerce
BE,51.2940481,4.2850917,www.tavernefortliefkenshoek.be,Facility
BE,50.3689016,5.7826625,nl.camping-ancienne-barriere.com,Facility
BE,51.0801275,5.0583981,denchirobijef.be,Facility
BE,50.7359498,4.236082,valentinobelgium.com,Commerce
BE,50.6385181,3.7773182,wellensarchi.be,Facility
BE,51.0764039,4.6706675,iverans.be,Facility
BE,50.5981127,4.3254001,www.immo-roman.be,Facility
BE,51.1035787,2.5931065,www.cajou.be,Facility
BE,51.1156924,5.0384726,www.deluplast.be,Commerce
BE,50.8243739,4.3983179,cycloparking.brussels,Facility
BE,50.2240578,4.3994683,geodata.wallonie.be,Unknown
BE,51.2037544,3.1816231,flyball-brugge.be,Facility
BE,51.0643804,4.0264616,www.synimmo.be,Facility
BE,50.590781,4.3094454,www.cassis.be,Commerce
BE,51.0736629,5.2198964,www.gold-mine.be,Commerce
BE,50.6613316,4.5586102,www.audrianne.be,Facility
BE,50.4913073,4.565502,www.cliniqueducheveu.be,Commerce
BE,50.9115013,3.6179601,store.totalenergies.be,Facility
BE,50.9193626,3.2139256,izycoffee.be,Facility
BE,50.8583027,5.5048757,jysk.be,Commerce
BE,51.0519734,3.380759,www.krismarstables.com,Facility
BE,50.7903286,4.3750842,www.tagawa.eu,Commerce
BE,50.9498365,3.2890428,www.restaurantsymfonie.be,Facility
BE,51.1175814,5.2606267,www.kreatos.be,Commerce
BE,50.7152326,4.3986842,www.kruidvat.be,Commerce
BE,50.8403843,4.400585,www.nicolas.com,Commerce
BE,50.7042694,4.417875,www.pharmaciedeladreve.be,Facility
BE,50.9731909,4.8985088,www.racketsportenspel.be,Commerce
BE,50.5402705,5.4538239,www.universdumeuble.be,Commerce
BE,50.5366705,5.2208414,www.autos-diffusion.be,Commerce
BE,50.9134872,5.3375633,vjbmotors.be,Commerce
BE,50.8864476,4.3109265,www.villo.be,Facility
BE,51.2281158,5.3153257,www.hoofdzaak.salon,Commerce
BE,50.9271786,4.7020064,chiro.wijgmaal.be,Facility
BE,51.2890478,4.1753483,www.rafdeclercq.be,Facility
BE,50.9477384,4.7555493,www.boeres.be,Facility
BE,50.979928,4.9712255,www.beobank.be,Commerce
BE,50.6795962,4.8529086,www.chateauform.com,Facility
BE,50.9943151,4.6864309,www.eraly.be,Commerce
BE,50.6714082,4.2480759,helpanimals.be,Facility
BE,51.2034784,3.2061024,www.de-broodsmid.be,Commerce
BE,50.9193343,4.9928114,www.op-trot.eu,Facility
BE,50.8347371,4.854099,www.ultrafit.be,Facility
BE,50.8867741,3.4332206,www.ilbasilico.be,Facility
BE,51.2319167,4.4257642,www.lagare27.be,Facility
BE,51.1667641,4.7879255,www.egeda.be,Facility
BE,50.4482208,3.893641,iepsjemappes.be,Facility
BE,51.1361827,4.9214663,wegenenverkeer.be,Facility
BE,51.1452993,4.8947657,www.jacques-ice.com,Unknown
BE,50.4783128,4.8814786,n-dental.be,Facility
BE,51.1979803,4.4437932,www.jardinpublic.be,Facility
BE,50.4187622,4.9417327,ardenne-et-gaume.be,Facility
BE,51.0531665,3.7246271,fairecofashion.com,Commerce
BE,50.5209915,4.7733288,www.libertnutrition.be,Facility
BE,50.9139598,3.9212306,hetdikpak.be,Facility
BE,50.59613,3.6192248,www.colruyt.be,Commerce
BE,51.0997256,5.0660545,www.laakdallogistics.com,Facility
BE,50.7080192,5.6424522,pharmaciesbernard.be,Facility
BE,51.0255407,4.4814148,www.nationale-loterij.be,Commerce
BE,50.9747567,4.8997897,thepeacocktreatment.jouwweb.be,Commerce
BE,51.0962374,4.5033958,www.zeeman.com,Commerce
BE,51.2131302,4.4047505,swapfiets.be,Facility
BE,50.9471526,5.1308744,www.thirypaints.be,Commerce
BE,50.9974481,3.0497786,www.houthandeldevreese.be,Unknown
BE,51.3452378,3.2606223,www.bijsandy.com,Facility
BE,51.2773974,4.7174708,www.tinq.be,Facility
BE,50.9172506,5.3156272,www.kwantum.be,Commerce
BE,51.1449835,3.6024728,www.exterioo.be,Commerce
BE,50.5422442,5.4805038,www.camber.be,Commerce
BE,50.5297219,5.240939,jc-cycles-huy.business.site,Commerce
BE,51.1233196,4.4535653,www.whloos.be,Unknown
BE,50.9148241,4.7157233,devuntzak.klikeneet.be,Facility
BE,50.9843714,4.8402087,www.aarschot.be,Facility
BE,50.4408224,3.9690377,www.aupetitdragon.be,Facility
BE,51.0913164,3.446912,www.restaurant-callas.be,Facility
BE,50.5660662,4.6905332,www.zeb.be,Commerce
BE,50.8456914,5.4873517,www.rijwielenrampen.be,Commerce
BE,50.8803595,4.7181605,www.dentopolis.be,Facility
BE,50.9540161,4.2236048,www.belgiantrain.be,Facility
BE,51.2630708,4.5553886,www.schilde.be,Facility
BE,50.8796334,4.706097,www.gigue.com,Commerce
BE,51.3245364,4.5204586,www.keurslagerdelaruelle.be,Commerce
BE,51.4030666,4.7615585,www.cafepoulet.be,Unknown
BE,51.4416793,4.9319229,www.fietsenguyruts.be,Commerce
BE,50.8448017,3.2719885,www.exterioo.be,Commerce
BE,50.9303231,4.4276669,shop.easyorderapp.com,Facility
BE,50.817519,4.6230529,www.huldenberg.be,Facility
BE,50.257175,4.43629,www.ad-construc-ferronnerie.be,Commerce
BE,50.6345958,5.5813995,www.policeliege.be,Facility
BE,51.1824073,3.096334,kantoorverschaeve.be,Facility
BE,51.0134,3.6462256,www.stevens-hifi.be,Commerce
BE,51.0646564,3.1016408,www.visittorhout.be,Facility
BE,50.6611298,5.9722491,www.si-welkenraedt.be,Facility
BE,51.2075302,4.4312853,www.rocklobster.be,Facility
BE,50.8971565,2.6427201,www.cwgc.org,Unknown
BE,50.8756132,4.4987901,vlaamsbrabantwest.be,Facility
BE,51.0501573,5.2192973,orthopolis.be,Facility
BE,51.1466368,4.9566455,www.electrodepot.be,Commerce
BE,50.917254,5.3212739,wegenenverkeer.be,Facility
BE,51.237703,4.337623,lanxess.com,Unknown
BE,51.1964027,2.9031677,www.kwantum.be,Commerce
BE,51.2217737,3.2181011,www.bioplanet.be,Commerce
BE,50.8441461,3.2676985,store.totalenergies.be,Commerce
BE,51.0614335,5.2730354,www.fietsen-lemmens.be,Commerce
BE,50.6881556,4.3196384,www.boels.be,Commerce
BE,51.0919538,2.9768067,www.anglo-koekelare.be,Facility
BE,50.5149164,5.4079465,www.patisseriedegard.be,Commerce
BE,51.0315303,4.4143279,www.apotheek-leest.be,Facility
BE,51.3426142,3.2879928,rommelaere.eu,Facility
BE,50.9769434,5.0431367,www.pieoptiek.be,Commerce
BE,50.864517,4.306305,cycloparking.brussels,Facility
BE,50.9178743,3.1156762,www.youbuild-mpro.be,Commerce
BE,50.9520198,3.1486911,www.apolux.be,Unknown
BE,51.002592,5.5106185,www.bgc-althea.be,Facility
BE,50.4452331,4.9006051,www.thg.be,Facility
BE,51.0385679,3.7156724,www.argenta.be,Commerce
BE,50.4746906,6.111038,domaine-charmilles.be,Facility
BE,51.1437085,4.3870174,augustijnskeukens.be,Commerce
BE,50.6536161,5.7116124,sofico.org,Facility
BE,50.9973605,3.305885,www.deverol.be,Commerce
BE,51.2362334,4.9800309,www.tourenaar.be,Commerce
BE,51.0219239,3.6897461,www.floorhouse.be,Commerce
BE,51.1848205,4.9845821,glow-geel.be,Commerce
BE,51.1179267,4.3106509,www.vlaamsewaterweg.be,Facility
BE,50.5886401,4.0759797,distripierres.be,Commerce
BE,50.6989788,4.6500818,eureka-aquabonheur.com,Facility
BE,50.5015562,4.7129302,corenove.be,Facility
BE,50.7724135,4.5374038,www.overijse.be,Facility
BE,50.9987707,4.1238676,www.bayardshootingclub.be,Facility
BE,50.9814854,3.529223,www.hansanders.be,Commerce
BE,50.2623302,5.4466269,www.cwgc.org,Unknown
BE,50.8594301,5.3396417,www.verbieren-missotten-kine.net,Facility
BE,51.2049146,4.0398826,www.backaertdhollander.be,Facility
BE,50.7792951,3.3926544,demoensefruitstatie.be,Commerce
BE,50.2845257,4.89767,claysclubbouvignois.be,Facility
BE,50.7820334,5.4657192,globalart.be,Facility
BE,51.274512,3.0237626,www.zeelyceum.be,Facility
BE,51.0588419,3.6992814,fietskeuken.org,Commerce
BE,50.713515,4.610955,www.sushihouse.be,Facility
BE,50.8471129,5.0530285,www.kantoorberge.be,Facility
BE,50.6867523,5.6041836,www.somivane.be,Commerce
BE,50.8299708,4.339101,cycloparking.brussels,Facility
BE,51.1474924,4.8952534,www.garagevriens.be,Unknown
BE,51.2083793,3.2287439,www.dieswaene.be,Facility
BE,50.8539785,4.3836445,www.villo.be,Facility
BE,50.4873514,5.8544232,www.ef-spa.be,Facility
BE,51.0576026,5.2216064,craswoodshops.be,Commerce
BE,50.7883466,4.271772,sint-pieters-leeuw.eu,Facility
BE,51.1060322,4.4104987,users.skynet.be,Commerce
BE,50.5725223,5.5679391,www.chuliege.be,Unknown
BE,50.8839497,3.4273405,www.vcpoincare.be,Facility
BE,50.9925073,5.0522299,www.allego.eu,Facility
BE,50.9989498,3.3148248,buitenspelentielt.be,Facility
BE,51.3120064,4.9524343,www.lunchgarden.be,Facility
BE,50.880399,4.7105791,vaporshop.be,Commerce
BE,50.8745135,4.6914694,www.hetschoonheidssalon.be,Commerce
BE,51.0659582,3.0974354,www.meubelencuylle.be,Commerce
BE,50.891909,3.336805,www.hetvlinderbos.be,Facility
BE,50.6947645,4.2065438,www.vapeur-et-saveur-tubize.be,Commerce
BE,51.3402685,4.3147265,kerknet.be,Facility
BE,51.2313143,4.4071631,www.hln.be,Facility
BE,50.1581587,5.2234167,www.bijouterie-destree-rochefort.be,Commerce
BE,50.3792303,4.3851189,www.club-immobilier.be,Facility
BE,50.8186844,4.415663,cycloparking.brussels,Facility
BE,51.0581824,2.6887811,www.cwgc.org,Facility
BE,51.1274284,5.0164498,m2bike.be,Facility
BE,51.165131,4.9806245,www.geel.be,Facility
BE,49.7604629,5.7867557,web.archive.org,Facility
BE,50.1252415,5.3699117,www.bivakzone.be,Facility
BE,50.9329426,5.3352697,www.hiexpress.com,Facility
BE,51.0949646,4.3679304,dats24.be,Facility
BE,50.6516723,5.4505783,www.lachocolaterieduhautclocher.be,Commerce
BE,50.9136802,3.3306226,inventaris.onroerenderfgoed.be,Facility
BE,51.2319484,5.3014225,www.webdrukker.be,Commerce
BE,50.4242634,4.6281782,www.balnam.be,Facility
BE,51.2144499,4.4089034,alligator.metro.rest,Facility
BE,50.8661688,4.7489666,stores.medi-market.be,Facility
BE,50.6974399,4.0517764,www.glacesdesmet.be,Facility
BE,50.59789,4.3224715,www.ccnivelles.be,Facility
BE,51.2612656,5.0289569,www.boshuisje.be,Facility
BE,51.1604156,4.9886594,www.dacorrado.be,Facility
BE,51.0196073,3.7642805,www.vanruyskensvelde.be,Commerce
BE,50.6427305,5.5853419,lghs.be,Facility
BE,50.7788141,4.6328401,huisartsenrooi.be,Facility
BE,51.2100922,4.5223544,www.bopack.com,Unknown
BE,51.0496999,5.2223326,www.beringen.be,Facility
BE,50.5226405,5.4105303,www.residencejourdemai.be,Facility
BE,50.4680566,4.8695612,www.librepermis.be,Facility
BE,50.6674696,4.56037,www.cspo.be,Facility
BE,51.1810664,4.4232543,store.totalenergies.be,Facility
BE,50.5863841,5.7353004,geodata.wallonie.be,Unknown
BE,50.4757783,4.1862503,www.iciparisxl.be,Commerce
BE,50.9773322,4.8695212,www.se7en.be,Commerce
BE,50.4589611,4.8751734,www.slcar.be,Commerce
BE,51.0180853,3.672778,www.obumex.be,Commerce
BE,50.9090304,3.4828144,dejap-bvba.be,Facility
BE,50.7288262,4.2269974,www.leenbakker.be,Commerce
BE,50.4649486,4.8643209,carolinebiss.com,Commerce
BE,51.0625282,3.1018206,elektrotaelman.be,Commerce
BE,50.6726912,5.5932887,www.maes-oil.be,Facility
BE,50.8880638,3.0558802,www.smulhuis.be,Facility
BE,50.6398787,5.5658413,www.labicoque.net,Facility
BE,51.1627119,4.8255161,www.kosh.be,Facility
BE,50.5308461,5.1507074,www.envoz.be,Unknown
BE,50.7651166,5.8853117,www.urbanphoto.nl,Facility
BE,50.6841578,4.8409883,www.molenechos.org,Facility
BE,50.8843757,4.6895822,ulyssis.org,Facility
BE,51.2131512,3.2337242,www.kantcentrum.eu,Facility
BE,50.6300043,5.8392434,www.garage-sepulchre.be,Commerce
BE,50.4612812,4.8688193,www.interparking.be,Facility
BE,51.0592212,3.726855,www.blommm.be,Commerce
BE,51.1014588,4.2483991,aertstrucks.be,Commerce
BE,50.5208022,5.4188529,huggysbar.com,Facility
BE,51.3008385,3.1468097,www.questcomputers.be,Commerce
BE,50.6348158,5.5711585,www.roulagiste.be,Facility
BE,51.0128447,4.4833305,jhjoko.be,Facility
BE,50.9361539,3.0967002,www.roeselare.be,Unknown
BE,51.0231007,3.6995848,autocenter.auto5.be,Commerce
BE,50.5863657,5.4934264,www.dela.be,Commerce
BE,50.9694557,3.0848987,www.tenax.be,Unknown
BE,50.6805813,4.2586395,aupetitpoids.be,Commerce
BE,50.9456003,5.3558285,hazelaar.kt-scholengroep.be,Facility
BE,50.4637019,4.8646623,www.vieuxquartier.net,Commerce
BE,50.9277888,4.4281167,fietsenier.be,Commerce
BE,51.0677696,5.220627,www.ecocoiffpatricia.be,Commerce
BE,50.555574,5.9086909,www.theux.be,Unknown
BE,50.9847547,4.8368202,www.yesexpertsinhair.com,Commerce
BE,51.1255553,4.336642,www.fietsendenutte.be,Commerce
BE,50.3849275,4.3799405,www.bpost.be,Facility
BE,50.6077672,4.8936371,www.molenechos.org,Facility
BE,51.2135768,5.4244322,www.halte45.be,Facility
BE,50.8944281,3.9971667,www.vmv-haaltert.be,Commerce
BE,50.6752853,3.9361765,www.silly.be,Facility
BE,50.6298259,4.7709304,www.carrement-bon.be,Commerce
BE,50.9794517,4.9749744,www.scherpenheuvel-zichem.be,Facility
BE,50.5999686,4.13516,centrembc.ifapme.be,Unknown
BE,50.4179575,4.9413582,www.ecolevs.be,Facility
BE,50.9909649,3.331006,www.smoovapp.eu,Facility
BE,50.8738864,4.7139202,www.argenta.be,Commerce
BE,51.0763783,5.1547136,www.lec.be,Unknown
BE,50.9217302,3.2355434,www.vanhonsebrouck.be,Facility
BE,50.9032189,4.375202,www.armonea.be,Facility
BE,50.997708,3.6855687,klimatec.be,Commerce
BE,49.8320745,5.0022449,www.bouillon.be,Unknown
BE,50.884066,4.3396105,cycloparking.brussels,Facility
BE,50.8367796,4.8480085,www.woonzorgweb.be,Facility
BE,50.4625428,4.8631997,sainte-marie-namur.be,Facility
BE,49.8093683,5.204572,www.camping-saint-remacle.be,Facility
BE,50.6622162,4.233204,viticolo.be,Facility
BE,50.9825085,3.8491912,www.candela-verlichting.be,Commerce
BE,50.7755474,5.4610445,find.shell.com,Facility
BE,50.4450823,4.6467171,www.extrashop.be,Commerce
BE,50.9922261,4.7057785,www.ing.be,Commerce
BE,51.069125,5.279013,www.tuincentrumcaubergs.be,Commerce
BE,51.1795178,4.4082295,pers.antwerpen.be,Facility
BE,50.8068694,3.3383871,www.kwarto.be,Commerce
BE,51.2137448,4.4094267,users.telenet.be,Commerce
BE,51.1683144,4.1878769,oost-vlaanderen.be,Facility
BE,50.5034105,4.7109666,www.viabuild.be,Facility
BE,50.9526418,5.3500728,vikingco.com,Facility
BE,50.7979793,3.1308433,www.sereni.be,Commerce
BE,51.0560486,3.722383,neuhaus.be,Commerce
BE,51.0645607,5.1801591,www.borealisgroup.com,Unknown
BE,50.943885,3.1390375,www.parkrodenbach.be,Facility
BE,51.044894,3.7358798,spot2charge.com,Facility
BE,50.9621055,4.7230161,www.sportoase.be,Facility
BE,50.4504655,4.8889189,www.douceur-coteaux-mosans.be,Facility
BE,50.6666685,4.6106289,bruxelloiselln.be,Facility
BE,51.0411636,3.7540394,blomme.gent,Facility
BE,50.8066154,4.4105217,www.calypso2000.be,Facility
BE,50.8976644,5.1127275,www.hetmonnikenhofvanvlierbeek.be,Facility
BE,51.2214799,4.4023482,tartoer.be,Facility
BE,51.0418459,3.7955058,www.induver.be,Facility
BE,50.7147548,3.6216947,www.vertes-feuilles.be,Facility
BE,50.8801292,4.4045017,www.everna.be,Facility
BE,50.8470166,5.0005516,www.boomhutbouwster.be,Commerce
BE,50.8859208,4.7298495,www.zorgleuven.be,Facility
BE,51.0720639,3.3898618,www.aufeu.be,Commerce
BE,51.2157787,4.4018989,www.nathalievleeschouwer.be,Commerce
BE,50.801467,4.3048049,www.dhl.be,Unknown
BE,50.714359,4.6681178,www.harasfermerose.com,Facility
BE,51.0329112,4.4701887,www.hotel-mechelen.be,Facility
BE,50.6906136,5.5816502,www.gentilechassis.be,Commerce
BE,51.4646247,4.4583287,www.delivingessen.be,Facility
BE,50.4397461,4.1601561,geodata.wallonie.be,Unknown
BE,50.5271037,5.2594271,www.wikihuy.be,Facility
BE,51.0657849,3.7318932,www.hal16.be,Facility
BE,50.8054207,4.9231416,www.dekringwinkel.be,Unknown
BE,50.685171,4.6933775,igs.eu.com,Commerce
BE,51.129946,5.0766706,www.hu-bin.be,Facility
BE,51.3009652,4.7349116,www.brandweerzonerand.be,Facility
BE,50.8940387,4.2430124,www.exterioo.be,Commerce
BE,51.1709283,5.1636739,www.balen.be,Facility
BE,50.965484,4.7390594,www.apotheekdaenen.be,Facility
BE,50.5964097,4.3256796,www.konvert.be,Facility
BE,50.6514877,5.5051834,carto1.wallonie.be,Facility
BE,50.9168495,4.8516976,www.natuurenbos.be,Facility
BE,51.1059681,3.447836,derolic.be,Commerce
BE,51.0702437,4.5313118,www.zagapizza.be,Facility
BE,51.2198179,4.4006531,www.brasserieappelmans.be,Facility
BE,51.2417226,3.2480268,reigersnest.eu,Facility
BE,50.4614335,3.9583394,www.heh.be,Facility
BE,50.9956753,5.2112891,budgetslager.be,Commerce
BE,50.8731427,4.7045565,www.kuleuven.be,Facility
BE,50.9547776,3.640433,www.vbseke.be,Facility
BE,51.2179866,4.398676,adelin.be,Commerce
BE,50.8365069,4.3482813,partagegalerie.com,Facility
BE,51.2677589,4.5329872,www.sintludgardis-schoten.be,Facility
BE,50.6875475,6.0794169,wesgo.be,Facility
BE,50.6388239,5.568999,www.stivi.be,Commerce
BE,50.9729335,4.4792285,www.apotheekverbist.be,Facility
BE,50.952743,5.2384262,www.logopediekermt.be,Facility
BE,51.2962205,4.7111918,www.boogaerts.be,Unknown
BE,50.649151,6.1817931,www.kockartz.be,Commerce
BE,51.1468721,4.3040678,www.museumdeschuur.be,Facility
BE,51.0672089,3.7331003,trensition.eu,Facility
BE,51.0521524,3.72005,www.nonno.be,Facility
BE,50.7181965,6.109931,www.raeren-tourismus.be,Facility
BE,50.9647323,5.4990958,www.standaardboekhandel.be,Commerce
BE,51.2206367,4.4153316,citybox.no,Facility
BE,50.994468,5.1981094,center26.be,Unknown
BE,51.1386389,4.3750514,www.chocandco.com,Facility
BE,51.2312817,4.389711,www.la-primavera.be,Unknown
BE,51.2433212,4.5903208,valadzo.be,Facility
BE,50.6757779,5.2157416,biodiversite.wallonie.be,Facility
BE,51.0782162,5.1448229,www.brunosafeparking.be,Facility
BE,51.2405642,2.9160633,www.triennalebeaufort.be,Facility
BE,51.2094817,3.2270642,www.amuni.be,Facility
BE,51.0683469,4.0439891,www.raampunt.be,Commerce
BE,51.2157174,4.399123,thiron.com,Commerce
BE,50.9776602,5.0581805,www.diestsekeukencentrale.com,Commerce
BE,51.1467091,4.2995723,www.apostelhuys.be,Facility
BE,50.4662876,4.3182787,www.gamping.com,Facility
BE,51.0589747,3.7221235,offoff.be,Facility
BE,50.6936788,6.0823095,www.venntrilogie.eu,Facility
BE,51.2351076,4.3914428,www.foodstories.be,Facility
BE,50.7756979,3.3952279,www.keukensdevlieger.be,Commerce
BE,50.8134676,3.1288306,www.vytech.be,Facility
BE,50.8081138,4.1537926,www.lamano.be,Commerce
BE,50.8233241,3.2653722,www.malfait.be,Facility
BE,51.3364599,4.9691908,inventaris.onroerenderfgoed.be,Facility
BE,50.4195714,6.063712,www.labouliniere.be,Facility
BE,50.8639714,5.1819091,www.gulf.be,Facility
BE,51.0169588,3.6404844,www.comptoir7.be,Commerce
BE,49.5672481,5.8351361,creaclaycris.com,Commerce
BE,50.8642236,5.505874,www.bonap.be,Commerce
BE,51.1113894,3.4352855,www.aalter.be,Facility
BE,51.2065024,3.2190324,patisseriechantilly.be,Commerce
BE,51.1246609,5.364642,www.kbc.be,Commerce
BE,50.9195933,4.4926565,www.ckcsj.be,Facility
BE,51.1924032,3.1961255,www.raadhuis.be,Unknown
BE,50.5472382,5.4518695,www.neupre.be,Unknown
BE,50.8211962,5.4239369,www.domeinclosstdenis.com,Facility
BE,51.189113,4.9030843,www.bbwheels.be,Commerce
BE,50.3410257,5.8973877,www.uswarmemorials.org,Facility
BE,51.1477568,3.1250028,www.zedelgem.be,Facility
BE,51.2382466,2.9270374,www.phareeast.be,Facility
BE,50.9680179,4.8941752,www.maes-oil.be,Facility
BE,50.6386567,5.5866229,magma-liege.be,Facility
BE,50.6349267,4.2400614,www.armonea.be,Facility
BE,50.3848399,5.1501583,www.musee-monopoli.be,Facility
BE,50.3884752,4.4327311,www.comarkt.be,Commerce
BE,50.7344545,4.2332422,hermanvandionant.com,Commerce
BE,51.0929566,2.6544425,www.mil.be,Facility
BE,51.204232,3.4697134,www.dovykeukens.be,Commerce
BE,51.1412212,3.1374052,www.oxfamwereldwinkels.be,Commerce
BE,51.2209103,5.3151532,www.ava.be,Commerce
BE,50.8403737,3.414161,www.texaco.be,Facility
BE,50.6783004,3.7086964,www.revesetdelices.be,Facility
BE,50.8717312,4.710259,justitie.belgium.be,Facility
BE,50.921643,5.2977996,www.hasel.be,Facility
BE,50.515316,5.7342892,www.molenechos.org,Facility
BE,50.8640915,4.3271837,www.q-park.be,Facility
BE,50.4543877,3.951726,www.visitmons.be,Facility
BE,50.9572853,3.1318805,www.dreambaby.be,Commerce
BE,50.5929814,5.4931072,amarena.be,Facility
BE,51.1366864,4.920476,wegenenverkeer.be,Facility
BE,50.8842847,3.4346202,www.boulevardink.be,Commerce
BE,51.3920293,4.593905,www.kruidvat.be,Commerce
BE,50.6495156,4.6417007,www.highsecurity.be,Commerce
BE,50.8196258,4.3064224,www.speos.be,Unknown
BE,51.0508397,4.4574049,www.dekringwinkel.be,Commerce
BE,51.1450437,5.0027547,www.belisol.be,Commerce
BE,51.1888606,5.2400712,roeffels.be,Commerce
BE,50.8559155,3.2912595,herenkapperwim.be,Commerce
BE,50.739277,4.2821267,www.boelekewis.be,Facility
BE,51.0065467,5.2715457,www.allego.eu,Facility
BE,50.8642264,4.3531989,ksz-bcss.fgov.be,Facility
BE,51.3905841,4.7428921,www.dyka.be,Unknown
BE,50.9048714,4.7213735,kap-zones.be,Commerce
BE,50.9644378,4.9142816,www.dierenartsenpraktijkoudenbos.be,Facility
BE,51.352329,4.5440901,www.concordiagooreind.be,Unknown
BE,51.2298707,4.4209307,www.politieantwerpen.be,Facility
BE,51.0199735,4.9625423,rutgerhof.be,Facility
BE,51.171178,4.4511215,www.wibra.be,Commerce
BE,50.8847277,4.733062,www.argenta.be,Commerce
BE,50.993239,3.261633,www.basisschoolpit.be,Facility
BE,50.1649924,5.0948924,liptitbambou.be,Facility
BE,50.8715824,3.2716781,www.het-bourgondisch-kruis.be,Facility
BE,51.1848416,5.1161649,kapsalonclass.be,Commerce
BE,51.0509396,4.4800675,www.frituur-r6.be,Facility
BE,51.3982622,4.7949019,www.sintjorisgildewortel.be,Facility
BE,51.341413,3.287474,www.wibra.be,Commerce
BE,51.2000166,3.8070966,www.denhof.be,Facility
BE,50.7342591,4.2354118,www.dirkdewittekappers.be,Commerce
BE,50.9014276,4.7321771,www.huisartsendelieming.com,Facility
BE,51.058052,3.7291658,dezebras.be,Facility
BE,51.027395,3.7332688,www.sikgent.be,Facility
BE,51.1272792,4.2116361,www.bakkerij-wauters.be,Commerce
BE,50.781703,5.464895,www.standaardboekhandel.be,Commerce
BE,51.0397186,3.7164735,dunhuang.be,Commerce
BE,51.0388047,3.7157959,www.fevery.be,Facility
BE,51.0525573,3.7663615,www.totaalpraktijk.be,Facility
BE,51.0513493,3.721468,stores.vanharen.be,Commerce
BE,50.5279576,5.7903834,www.theux.be,Unknown
BE,50.8845908,4.6960179,www.wandelkwis.be,Facility
BE,51.0877295,3.8296721,www.kinelochristi.be,Facility
BE,51.1354942,3.160922,elektriciteit-steen.be,Facility
BE,50.785677,4.5023255,delitraiteur.com,Commerce
BE,50.9201933,4.1618281,www.dierenartsdewandeler.be,Facility
BE,50.3773604,4.9513261,www.ores.be,Unknown
BE,51.3291669,3.2049658,www.adviesburohosten.be,Facility
BE,49.8265373,5.7440982,www.b-maquillagepermanent.com,Commerce
BE,50.823736,4.2931062,cycloparking.brussels,Facility
BE,51.2089653,3.2599229,www.veritas.be,Commerce
BE,50.8739948,4.3822198,www.touslesjoursdimanche.be,Facility
BE,50.7696483,4.5369321,www.denblank.be,Facility
BE,51.0859758,4.2224432,www.bernardusschool.be,Facility
BE,51.0372105,5.7100266,www.tcdilsen.be,Facility
BE,50.8737123,4.6716962,www.kinemovus.be,Facility
BE,50.3258052,5.2994287,sentiersdart.be,Facility
BE,50.9569227,5.5369399,www.kattevennen.be,Facility
BE,51.1049001,4.0863702,www.coiffuredesaeger.be,Commerce
BE,51.0478645,3.721714,www.curbskateshop.be,Commerce
BE,49.8772877,5.0220506,visitwallonia.fr,Unknown
BE,51.1238348,4.3924338,www.eu-reno.eu,Commerce
BE,50.8986922,5.6402595,www.maes-oil.be,Facility
BE,51.349103,4.7612218,www.fvr-vzw.be,Unknown
BE,51.1599022,4.9898882,www.lingerie-imago.be,Commerce
BE,51.1004249,4.1406899,www.guysnaaicentrum.be,Commerce
BE,51.1032979,4.7288074,www.openingsurengids.be,Commerce
BE,50.3509271,5.4939752,ccdurbuy.be,Facility
BE,51.2200071,4.4341646,www.sintjozefkerkstraat.be,Facility
BE,51.2593286,4.4644504,www.quick.be,Facility
BE,50.911364,5.0489188,kortenaken.bibliotheek.be,Facility
BE,50.666904,3.8657546,www.alimad.be,Facility
BE,50.8415358,4.2529373,id.erfgoed.net,Facility
BE,50.6202676,5.8308136,www.maes-oil.be,Facility
BE,51.2198766,4.4549017,www.velo-antwerpen.be,Facility
BE,51.147491,4.3018224,www.abcdrinks.be,Commerce
BE,50.5779152,3.6207361,lesfleursacouper.be,Facility
BE,50.5636143,5.2160214,blogs.sudinfo.be,Facility
BE,50.9677646,3.4169396,www.curando.be,Facility
BE,51.2357569,3.2492122,www.fortvanbeieren.be,Facility
BE,50.7107659,5.5233127,www.signupliege.be,Commerce
BE,51.1103551,5.1003386,www.schoenmakerijpollevie.be,Commerce
BE,50.8073492,3.1710081,www.wevelgem.be,Unknown
BE,51.0086024,4.9134562,www.tcdezavel.be,Facility
BE,50.8934919,4.2786465,www.belogistics.be,Facility
BE,50.4661866,4.8609869,lebouffonduroi.be,Facility
BE,50.6045673,5.339669,www.club.be,Commerce
BE,51.1074443,3.4593846,www.vlado.be,Unknown
BE,50.8615777,3.343526,inventaris.onroerenderfgoed.be,Unknown
BE,50.5611573,4.6821695,www.defleursafleurs.be,Commerce
BE,50.9066329,3.41558,www.kwarto.be,Commerce
BE,50.3976563,4.3031311,carto1.wallonie.be,Facility
BE,51.0204939,3.1338456,www.artexfashion.be,Commerce
BE,50.6824935,4.7195726,poneyclub.lamissive.com,Facility
BE,51.0409442,4.4438094,www.batteliek.be,Commerce
BE,50.9475148,3.1276515,www.san-marco.be,Facility
BE,51.1287949,4.5811815,hetlooks.be,Facility
BE,51.3080972,3.1300809,www.praktijk-itransform.be,Facility
BE,51.0542404,3.7240929,amadeus-resto.be,Facility
BE,50.8765469,4.0158465,stores.delhaize.be,Commerce
BE,50.5948439,3.8521547,www.pharmaciecoloneldaumerie.be,Facility
BE,50.741062,4.0089919,www.zonneliedvzw.be,Facility
BE,51.1439556,4.8588657,hetsmaakpand.be,Facility
BE,51.2808267,3.0382569,www.bnbleshirondelles.be,Facility
BE,50.8099055,3.0772924,www.optiek-declercq.be,Commerce
BE,50.8483776,3.2630715,www.jims.be,Facility
BE,51.4069049,4.8943608,www.dehorizon-tspoor.be,Unknown
BE,50.8313485,4.2993347,cycloparking.brussels,Facility
BE,51.3760136,4.479832,www.rinkrank.be,Facility
BE,51.3550929,4.8604052,www.merksplas.be,Facility
BE,50.5605511,4.6945659,www.pearle.be,Commerce
BE,51.204602,4.4043592,www.patisserie-emi.be,Commerce
BE,50.7353493,4.660639,sofico.org,Facility
BE,51.4769527,4.7967633,frituurdeparel.be,Facility
BE,50.8662208,4.3877386,cycloparking.brussels,Facility
BE,51.2110345,4.4072607,www.velo-antwerpen.be,Facility
BE,51.17194,5.1601718,www.vanheeselectro.be,Commerce
BE,50.3506955,5.493699,www.lekarawa.be,Facility
BE,50.8314778,4.3727417,museedixelles.irisnet.be,Facility
BE,51.053331,3.7239193,www.frituurtartaar.be,Facility
BE,50.9243157,3.4482095,www.q8.be,Facility
BE,51.0390406,5.1711648,www.signature.be,Commerce
BE,50.9041352,3.526711,www.hulpinhuis.be,Commerce
BE,50.9644157,5.1466965,www.schulensmeer.be,Facility
BE,51.0767599,4.280229,www.fijnproeverij.be,Facility
BE,50.8632471,3.4007407,www.vbsnhove2.be,Facility
BE,50.6697598,4.6132686,monicajane.be,Commerce
BE,51.3234658,4.9507262,noshtoniq.com,Facility
BE,51.0783124,5.0902488,dentalteam.be,Facility
BE,51.3328123,4.9442491,www.kindmetinktvlekken.be,Facility
BE,50.8331408,4.3759016,www.charge.brussels,Facility
BE,50.6801808,4.2484917,outletmobilier.com,Commerce
BE,50.3249263,5.5934772,lesmontsdaisne.be,Facility
BE,50.4633065,4.8661216,www.asadventure.com,Commerce
BE,50.4656165,4.8619044,le-petit-bitu.business.site,Facility
BE,51.0194,3.6398594,www.linnenkastje.be,Commerce
BE,50.8141181,4.3566913,magasins.carrefour.eu,Commerce
BE,50.16745,5.086853,pioupiou.com,Facility
BE,50.9589478,5.4455978,meal66.metro.rest,Facility
BE,51.3942637,4.4745335,www.pyramide-kalmthout.be,Facility
BE,50.5991066,5.5110865,plaisirs-meubles.be,Commerce
BE,50.8161232,4.4179465,cycloparking.brussels,Facility
BE,51.3527896,4.4125672,www.chiroputtegrens.be,Unknown
BE,50.6872442,3.8561863,reservation.barestho.com,Facility
BE,51.0226595,3.0376456,www.provet.be,Unknown
BE,50.6092164,5.8321455,www.verviers.be,Unknown
BE,50.8128629,2.9814799,inventaris.onroerenderfgoed.be,Unknown
BE,50.8334983,4.0257662,zuid-oost.hulpverleningszone.be,Facility
BE,51.0678865,4.9793013,www.argenta.be,Commerce
BE,50.7373847,4.2349721,goossens-bvba.be,Facility
BE,51.0269605,4.7961158,geopunt.be,Unknown
BE,50.4830048,4.1984123,www.action.com,Commerce
BE,51.202156,4.4112534,www.antwerpen.be,Facility
BE,51.0894391,3.8064027,www.speelmijntje.be,Facility
BE,51.1078737,3.7069994,www.sfevergem.be,Facility
BE,50.6760684,5.637647,www.pmt.be,Facility
BE,50.9773619,3.0153026,www.cwgc.org,Facility
BE,51.2313996,4.419299,www.politieantwerpen.be,Facility
BE,50.7362936,4.2865992,www.acv.com,Facility
BE,49.6844545,5.7948761,www.lidl.be,Commerce
BE,50.5970904,4.3243242,www.librairie.be,Commerce
BE,50.8781401,4.6979612,www.rawette.be,Commerce
BE,51.0648003,5.104883,www.motomedic.be,Commerce
BE,51.2227992,3.7459692,www.aldi.be,Commerce
BE,50.7409483,3.1979663,www.lamn.be,Facility
BE,50.90185,4.3592045,www.apotheeksintanna.com,Facility
BE,51.1678352,2.7662082,www.surfclubwn.be,Facility
BE,51.2102775,4.6550329,www.stefandesaeyere.be,Commerce
BE,50.7182113,4.615152,www.vet2care.be,Facility
BE,50.6144849,4.4531767,www.kruidvat.be,Commerce
BE,49.8620043,4.8841927,www.lamaisondurenard.be,Facility
BE,50.8199603,4.374895,www.villo.be,Facility
BE,51.0718823,4.9672361,zowico.webnode.nl,Commerce
BE,50.7814207,5.4811516,incompagnie.be,Unknown
BE,50.7137544,4.6029748,www.qteam.be,Commerce
BE,50.4070275,4.4403045,www.fafouille.be,Commerce
BE,51.0345028,4.6588457,elugie.com,Facility
BE,51.0911842,2.9671815,www.zeeman.com,Commerce
BE,50.7432489,3.5943272,www.ontdekronse.be,Facility
BE,50.9927982,4.7065652,yalora.be,Commerce
BE,51.0941193,4.9281014,kvcwesterlo.be,Facility
BE,51.1559538,2.9626518,www.spijshuis.be,Facility
BE,50.8496049,2.8890516,fietsbieb.be,Facility
BE,50.6875107,4.4067556,www.shurgard.com,Commerce
BE,51.0842704,3.6425726,www.monumentaltrees.com,Facility
BE,50.841713,4.3917766,www.klm-mra.be,Facility
BE,51.0031449,3.7138561,www.lezabthai.be,Facility
BE,50.8400587,3.2123787,www.garagevervaecke.be,Commerce
BE,51.2410594,3.4130215,inventaris.onroerenderfgoed.be,Facility
BE,51.2387746,5.1194892,www.dessel.be,Facility
BE,51.0577177,4.7119506,depakman.be,Facility
BE,50.8900742,3.422507,www.foolsgarden.be,Facility
BE,50.923257,4.4667205,www.vilvoorde.be,Facility
BE,51.1673707,4.744884,www.bouwelhoeve.be,Facility
BE,50.8179051,4.411471,cycloparking.brussels,Facility
BE,50.8066307,5.2828651,www.keurslagerijclaesen.be,Commerce
BE,50.9005752,3.4042796,restaurants.pizzahut.be,Facility
BE,50.6525521,5.4192772,belgianwhisky.com,Commerce
BE,50.708548,4.2140251,www.imexsocarcenter.be,Unknown
BE,50.9550157,3.1123563,www.eyedoctor.be,Facility
BE,50.3548982,4.5535515,www.ecuriedessauvlons.be,Unknown
BE,50.5099364,3.3875949,www.brunehaut.com,Commerce
BE,51.0675013,3.7568224,dokterriet.be,Facility
BE,50.8875111,5.4961838,infrabel.be,Facility
BE,50.9494255,3.3500813,inventaris.onroerenderfgoed.be,Unknown
BE,50.7352964,4.2360224,www.yves-rocher.be,Commerce
BE,50.9276008,3.3200608,inventaris.onroerenderfgoed.be,Unknown
BE,50.999382,5.5764694,www.frituurterheide.com,Facility
BE,51.0440995,3.7216954,jnm.be,Commerce
BE,50.2913832,5.091454,www.belgiantrain.be,Facility
BE,51.1931314,3.2144449,www.howest.be,Unknown
BE,51.3977429,4.7789236,www.debouwhoeve.be,Unknown
BE,51.3093212,3.1982052,delisblomme.be,Facility
BE,50.397417,3.7717803,www.kruidvat.be,Commerce
BE,50.9957835,3.3269646,www.politie.be,Facility
BE,50.4494684,3.9836826,cpas.mons.be,Facility
BE,50.8773908,4.3357636,www.novadead.com,Facility
BE,50.4101634,4.168929,www.ygaccessoires.com,Commerce
BE,50.8895752,4.4706191,www.leonidas.com,Commerce
BE,51.1485979,3.1649745,www.poweroil.be,Facility
BE,51.2314132,4.4127067,www.cadixfood.be,Facility
BE,50.7644899,2.7695148,www.koudekot.be,Commerce
BE,51.1283028,5.5476928,www.bivakhuis-kariboe.be,Facility
BE,51.0620299,4.726055,www.pauldemeutter.be,Facility
BE,50.6463354,4.0701889,www.braine-le-comte.be,Unknown
BE,50.3044855,5.7099322,www.idelux.be,Unknown
BE,51.2426791,4.8967578,www.spar.be,Commerce
BE,51.2400767,5.1111566,www.dessel.be,Facility
BE,50.9500172,4.8066823,www.stal-dekluis.be,Facility
BE,50.9824126,3.8455779,stores.lolaliza.com,Commerce
BE,49.7176884,5.5865944,ecoleshabay.be,Facility
BE,51.1291662,5.5241083,www.meeuwen-gruitrode.be,Facility
BE,50.6746756,4.7148766,fr.aldi.be,Commerce
BE,50.6430406,5.5673423,www.upsl.be,Facility
BE,50.4268206,5.1968447,sentiersdart.be,Facility
BE,50.897179,3.2978627,www.muizelmolen.be,Facility
BE,51.1324863,5.1125411,vhvmeerhout.be,Facility
BE,50.8317912,3.3096634,www.cwgc.org,Unknown
BE,50.9781797,2.9511768,www.cwgc.org,Unknown
BE,51.2249528,5.3328161,www.elgro.be,Commerce
BE,50.6402421,5.5813925,www.theatretrianon.be,Facility
BE,50.9199164,2.6234524,www.brouwerij-werbrouck.be,Facility
BE,50.6424206,5.573044,www.boutiques-schyns.be,Commerce
BE,51.2191516,4.3989983,www.degrootewittearend.be,Facility
BE,51.2226321,4.4220096,www.politieantwerpen.be,Facility
BE,51.0611323,4.713349,www.handelsgids.be,Facility
BE,50.4068895,4.4410878,www.april-beauty.be,Commerce
BE,50.6383252,3.7866366,eshop.wurth.be,Commerce
BE,51.1588643,4.8143815,www.groepvdh.be,Commerce
BE,51.2145331,4.4426815,www.nawaab.be,Facility
BE,50.5544902,3.3051923,www.cyclesgauquier.be,Commerce
BE,51.0673527,3.7324724,www.paradisio-online.be,Commerce
BE,51.0951159,3.8262575,www.nicosdrinkmarket.be,Commerce
BE,50.6695396,6.1255247,www.radcabine.com,Commerce
BE,49.6492928,5.8759463,barnich-sterpenich.ec-arlon.be,Unknown
BE,51.041209,3.7133554,www.eniris.be,Facility
BE,50.9934398,3.6835004,dekoleblomme.be,Facility
BE,51.1117804,2.6385352,fauvette.be,Facility
BE,49.7340244,5.6696629,chateaudupontdoye.be,Facility
BE,50.7042558,4.6371918,sofico.org,Facility
BE,51.2135053,4.3929509,www.cafedevismijn.be,Facility
BE,50.8285505,4.3354823,cycloparking.brussels,Facility
BE,50.7023641,4.1766804,www.luckx.be,Commerce
BE,51.0369366,5.0844711,www.atelierhill.be,Commerce
BE,51.2790758,4.4186045,www.kruidvat.be,Commerce
BE,50.5049327,5.6649839,www.sprimont.be,Facility
BE,51.2357074,4.8221531,www.tourenaar.be,Commerce
BE,51.2309799,4.4231314,barnoord.be,Facility
BE,51.2217607,4.4158761,www.politieantwerpen.be,Facility
BE,51.0934628,4.0284017,neyt-man.be,Commerce
BE,50.8121326,4.26533,environnement.brussels,Facility
BE,51.2173222,4.4023015,www.winkelbrussel.be,Commerce
BE,51.2157812,3.1920217,www.verhuurmeerschaert.be,Facility
BE,50.8114539,4.3458902,cycloparking.brussels,Facility
BE,51.404897,4.7631973,ekh.be,Facility
BE,50.8809073,4.7125184,www.boekhandelpeeters.be,Commerce
BE,51.1846274,3.0050437,www.krokeat.be,Commerce
BE,50.6438202,5.584989,www.saint-luc.be,Commerce
BE,51.2116161,5.0394941,www.descheepvaart.be,Unknown
BE,50.8369924,3.4014527,www.restaurantdeheerlijkheid.be,Facility
BE,51.1640324,5.1810896,www.kreatos.be,Commerce
BE,51.2456959,4.4167798,www.matiate.be,Facility
BE,50.9827552,5.0526642,www.cassis.be,Commerce
BE,50.8696392,4.9885802,www.schoonheidssalonilse.be,Commerce
BE,51.0362374,3.734492,www.wolterskluwer.be,Facility
BE,51.1815529,4.9935904,www.geel.be,Facility
BE,51.2164575,4.4160381,www.koffieenlunchescobar.be,Facility
BE,50.8085093,4.4001819,www.belgiantrain.be,Facility
BE,50.6911078,5.5818555,www.boubasud.be,Facility
BE,51.1810082,2.9400223,www.desnuffel.com,Facility
BE,49.995167,4.9514093,srtoiture.be,Commerce
BE,50.842183,4.4825439,www.sjwo.be,Facility
BE,50.7404278,4.335806,www.zeb.be,Commerce
BE,51.0887656,3.9950361,www.bokmolenhoeve.be,Facility
BE,51.2167764,4.4005804,www.moose-in-the-city.com,Commerce
BE,50.5883843,4.9114036,www.okay.be,Commerce
BE,51.2245572,4.4007366,www.cambio.be,Facility
BE,49.551589,5.8061514,www.hotel-pole-europeen.com,Facility
BE,50.9368333,4.9354392,www.deleeuwerik.be,Facility
BE,51.4104268,4.7631501,www.tklavertje-vier.be,Commerce
BE,50.9498678,4.4228242,havicrem.be,Facility
BE,50.7377848,5.6098838,friteriestrauven.eatbu.com,Facility
BE,51.1891786,4.4253207,www.royal-sushi.be,Facility
BE,51.3222161,4.9462554,www.hunkemoller.be,Commerce
BE,51.0350595,5.0131313,www.bergen-clits.be,Facility
BE,51.036695,3.7411292,www.degoudenschaar.info,Commerce
BE,50.775451,3.1741337,www.tarras.be,Unknown
BE,50.8377919,3.3105414,www.autofix.be,Commerce
BE,50.7441282,4.5742391,latabledestempliers.be,Facility
BE,50.8842444,4.705159,www.bodystyling.be,Commerce
BE,50.9235755,4.4400536,www.ringtv.be,Facility
BE,51.1562553,4.1384332,www.sint-niklaas.be,Facility
BE,50.8933781,4.6905936,www.debroodjesbar.be,Facility
BE,50.8750934,4.7095845,www.mijnspar.be,Commerce
BE,51.2087506,3.2212909,www.merveilleux.eu,Facility
BE,51.2033834,3.2250598,www.handwerkhuisje.be,Commerce
BE,50.8477167,4.4670895,www.babilou.be,Facility
BE,51.2520329,5.1024985,www.bollie-opvoedingcentrum.be,Facility
BE,51.038008,5.3663771,fietsenmartens.be,Commerce
BE,51.0676701,5.2410986,www.frituurhetgroenegenoegen.be,Facility
BE,51.1707559,4.456434,www.vdab.be,Facility
BE,51.2056326,4.4647372,www.gvhv-mplp.be,Facility
BE,51.052639,5.0360942,wet.gerhagen.be,Facility
BE,50.8879395,3.9864702,www.dochtersdeneve.be,Facility
BE,51.1681914,4.4782988,www.q8.be,Facility
BE,51.2506033,5.3038037,toerismelommel.be,Facility
BE,51.2182549,5.4298784,www.fitpointfitness.be,Facility
BE,50.8796052,4.472646,cuyperke.be,Facility
BE,50.8412108,4.4019762,www.poppymood.be,Commerce
BE,50.4780918,4.9682817,www.newhoteldelives.com,Facility
BE,51.0671524,5.7546915,basisschool-elen.be,Facility
BE,50.1949671,5.1725526,www.chateaufrandeux.be,Facility
BE,50.8211061,4.4028608,www.ibombo.be,Facility
BE,51.1668788,4.9886379,www.perlei-coiffure.be,Commerce
BE,51.4697559,4.7370353,www.goodlifecablepark.be,Unknown
BE,50.7467209,5.8151619,www.hoevedebies.be,Facility
BE,51.0003517,4.2497469,www.leofoon.be,Facility
BE,51.0565113,3.7232901,www.swarovski.com,Commerce
BE,51.0346689,3.7166722,charlinescloset.be,Commerce
BE,51.0463598,5.2251556,beringen.sushiking.be,Facility
BE,50.4527801,4.1953289,wolfpadelpark.be,Facility
BE,50.9843262,4.8352744,www.bloemenamphora.be,Commerce
BE,50.4636197,4.8630348,www.bewolfnamur.be,Facility
BE,49.8048517,5.4599152,www.usassenois.com,Facility
BE,51.0386683,3.7281423,www.deappelier.be,Facility
BE,50.9950683,3.2681121,www.pittem.be,Facility
BE,50.4639717,4.8652733,www.proximus.be,Commerce
BE,51.2383758,4.3357438,lanxess.com,Facility
BE,51.0735084,4.7379257,heiligefamilieheist.be,Facility
BE,51.3397378,4.5293409,pro-garden.be,Commerce
BE,51.2173158,4.4177763,www.ginotti.com,Commerce
BE,50.930463,5.3352237,www.thebabyscorner.be,Commerce
BE,50.6444227,3.5728572,letangdeslegendes.com,Facility
BE,49.8031387,5.360411,www.egliseinfo.be,Facility
BE,50.8581346,4.3811197,cycloparking.brussels,Facility
BE,51.1310906,5.4566491,www.standaardboekhandel.be,Commerce
BE,50.6631187,4.5770093,www.ccro.be,Facility
BE,51.1844412,2.9735129,inventaris.vioe.be,Unknown
BE,51.1263257,5.2564211,www.bloemen-paradijs.be,Commerce
BE,51.0052808,3.8736814,www.houseandgardenwetteren.com,Commerce
BE,51.094557,4.0094416,www.ah.be,Commerce
BE,50.8450865,3.2399653,www.dezoeten8501.be,Facility
BE,50.4320871,4.0929112,coiffure-familia.business.site,Commerce
BE,51.4015262,4.7620015,www.outletshoes.be,Commerce
BE,50.6395843,5.5801072,www.sainte-veronique.be,Facility
BE,50.4633672,4.9096156,www.awsr.be,Facility
BE,51.0041739,3.7149584,www.apotheekteam.be,Facility
BE,51.2332617,2.9204198,www.sainttropez.be,Facility
BE,50.5363511,5.8130981,www.sitheux.be,Facility
BE,50.4507377,3.9518613,www.martinshotels.com,Facility
BE,51.1900003,4.3793949,www.c-and-a.com,Commerce
BE,50.6826392,4.3741677,8rp.be,Facility
BE,50.4537995,3.9548108,www.lathailande.be,Facility
BE,51.2236858,4.4033916,www.barbuenosaires.be,Facility
BE,50.6856315,4.3793515,www.mainoi.be,Facility
BE,51.357137,4.6329988,www.belgiantrain.be,Facility
BE,51.1718906,3.7122287,inventaris.onroerenderfgoed.be,Facility
BE,50.2676233,4.9359361,que-du-bonheur.be,Commerce
BE,51.1438585,4.9522401,chinatown.zystar.be,Facility
BE,50.6455556,5.5776971,chezmamy.be,Facility
BE,50.9851444,5.0500101,www.dekaaidiest.be,Facility
BE,50.5320464,5.5690365,lacaroline.be,Commerce
BE,50.7853014,3.3855562,www.hetsmaaktafereel.be,Commerce
BE,51.0226681,4.4823723,www.startpeople.be,Facility
BE,51.0303086,3.5578227,www.renmans.be,Commerce
BE,51.4550623,4.7116024,www.sprangers.be,Unknown
BE,50.6890654,5.6256835,sofico.org,Facility
BE,51.2378934,4.342045,lanxess.com,Facility
BE,51.0427731,5.2142173,www.youcandance.be,Facility
BE,50.9303752,3.659818,assortifashion.be,Commerce
BE,51.2003693,4.43937,rozerood.be,Commerce
BE,50.8862284,2.8142453,www.kapsalonels.net,Commerce
BE,51.122085,4.4636787,www.gillion.be,Facility
BE,51.0253393,4.4816939,www.hollandandbarrett.be,Commerce
BE,50.9437899,4.326455,www.torfs.be,Commerce
BE,50.4593073,4.883638,www.pirouette.be,Facility
BE,51.0383807,5.2259725,crea-decor.be,Facility
BE,50.9075956,3.5293752,www.bpost.be,Commerce
BE,50.9535625,3.5520655,www.sbat.be,Facility
BE,50.9507174,3.1194857,www.mooma.be,Facility
BE,50.7359977,5.768312,www.dalhem.be,Facility
BE,51.2192439,4.4438134,www.politieantwerpen.be,Facility
BE,50.8343577,4.1436668,vlaamsbrabantwest.be,Facility
BE,51.1342682,4.4473418,www.velodi.be,Commerce
BE,50.5922248,5.862751,www.folenjeux.be,Commerce
BE,51.164882,4.3504012,www.outfort.com,Unknown
BE,51.3119095,4.9316422,www.hvztaxandria.be,Facility
BE,51.0867385,4.3683798,rijschoolurban.be,Facility
BE,51.1570993,3.197677,www.groepspraktijkloppem.be,Facility
BE,51.3285704,3.1797903,portpharma.be,Facility
BE,51.0828174,3.7291011,scholen.stad.gent,Facility
BE,51.1639153,4.3842946,www.jims.be,Facility
BE,50.9422085,3.0659538,www.pmo-service.be,Facility
BE,50.8133729,4.4347529,www.villo.be,Facility
BE,50.7587898,5.6104282,bel-memorial.org,Facility
BE,50.6711383,4.6170471,lesplanade-shopping.klepierre.be,Commerce
BE,51.0339518,3.7405316,www.wgcbotermarkt.be,Facility
BE,51.0874229,3.4481409,www.bazill.be,Commerce
BE,50.5745477,3.6761043,www.taverne-saint-gery.be,Facility
BE,51.1236609,5.0098751,www.devleeswinkel.be,Commerce
BE,50.4536303,6.1227177,www.auberge-du-lac.be,Facility
BE,50.6481707,5.5858559,www.ravis.be,Facility
BE,51.037116,4.4863369,www.kvmechelen.be,Facility
BE,51.2274315,4.411422,kolonelcoffee.be,Facility
BE,51.2096716,4.4379682,www.novelta.be,Commerce
BE,50.9461327,3.1260501,stores.lolaliza.com,Commerce
BE,50.9918324,3.6531194,www.vbs-depinte.be,Facility
BE,51.1654371,4.4716313,dekompanie.net,Facility
BE,51.0528351,3.7234745,www.luca-arts.be,Facility
BE,50.4196593,4.169109,www.renmans.be,Commerce
BE,50.9865736,3.5250005,www.ninasbloemenhoek.shop,Commerce
BE,50.8276915,4.9236087,www.fidelle.be,Commerce
BE,51.2172732,4.4158186,www.lidl.be,Commerce
BE,50.9917147,5.1946105,www.gulf.be,Facility
BE,50.662661,5.5952104,www.pizzalino.be,Facility
BE,50.9770009,4.9346348,www.cresens.be,Unknown
BE,50.7294502,4.2408504,winkels.carrefour.be,Commerce
BE,50.1943046,4.4087467,www.campingdeslacs.be,Facility
BE,50.9349162,3.7565739,www.bloemendekeyster.be,Commerce
BE,50.6853053,4.3748461,www.dominos.be,Facility
BE,50.8403822,4.3569683,www.villo.be,Facility
BE,50.6367891,5.5685591,www.hepl.be,Facility
BE,50.6324919,6.0410839,www.houtziplou.bio,Commerce
BE,50.4623429,4.8668254,biancaeluisa.be,Commerce
BE,50.0033465,5.0222046,www.colleauxsa.be,Facility
BE,50.9274246,5.3456469,www.hasselt.be,Facility
BE,50.9219739,3.0003903,www.paswest.com,Facility
BE,50.7223265,4.5775443,www.trafic.com,Commerce
BE,51.0803713,2.5957167,www.plopsalanddepanne.be,Facility
BE,51.0903028,3.4472281,www.vishandelsteyaert.be,Commerce
BE,50.562156,4.1569013,www.belgiantrain.be,Facility
BE,50.9042558,4.0033266,www.groepsf.be,Facility
BE,50.7431265,3.5894671,www.davincicampus.be,Facility
BE,50.7125831,2.8853228,www.lairedefamille.com,Facility
BE,51.2256436,2.9237815,www.lapiazzaoostende.com,Facility
BE,51.2137289,4.3978445,www.julijasshop.be,Commerce
BE,50.5035553,4.7108874,www.qbrik.be,Facility
BE,50.6754041,4.2430858,www.inbw.be,Facility
BE,50.5552242,4.6760862,www.clinique-veterinaire-gembloux.be,Facility
BE,50.6839808,4.6974182,www.chaumont-gistoux.be,Facility
BE,50.2263299,5.1330057,www.domainedechevetogne.be,Unknown
BE,51.1709848,4.1372369,www.sint-niklaas.be,Unknown
BE,51.1460507,5.0006461,www.silverlakehd.be,Commerce
BE,50.8068896,5.2772758,apotheek-martens.be,Facility
BE,51.1601118,4.9898616,www.accentjobs.be,Facility
BE,51.3333878,3.2061194,www.p-j.be,Commerce
BE,50.9996352,3.748768,www.destoffenknop.be,Commerce
BE,50.8548297,2.7275313,www.sidons.be,Commerce
BE,50.8087416,3.2148877,poweroil.be,Facility
BE,50.9902488,5.2585357,www.circuit-zolder.be,Facility
BE,50.8450381,4.3498203,www.godivachocolates.eu,Commerce
BE,50.9678915,3.0268314,bloemencarron.be,Commerce
BE,51.0473266,3.7308497,stad.gent,Commerce
BE,50.9433859,3.6649676,www.marcvanlierde.be,Commerce
BE,51.2474501,5.0294433,www.domeinbeverdonk.be,Unknown
BE,50.9075743,5.4801296,www.natuurenbos.be,Facility
BE,50.4734302,6.143164,pensionulenspiegel.de.tl,Facility
BE,50.6173027,5.1605023,villagedusaule.be,Unknown
BE,50.9858002,4.8452874,basisschool.sjca.be,Facility
BE,51.1900738,4.7361512,www.grobbendonk.be,Facility
BE,50.9152255,5.2473093,oxfambelgie.be,Commerce
BE,50.9962605,4.7113187,www.okay.be,Commerce
BE,50.6958638,4.3620273,www.marvince.be,Commerce
BE,51.2308793,5.3110962,www.bellesenbikkels.be,Commerce
BE,50.6385123,5.603834,www.enseignement.be,Facility
BE,50.8813292,4.7138802,kosmopol-leuven.be,Facility
BE,50.8962736,3.2427809,gdoc.ngi.be,Facility
BE,51.4714206,4.8046672,www.tpierelierke.be,Unknown
BE,50.9481374,4.7554504,rotselaar.be,Facility
BE,51.0485879,5.222751,www.mademoiselle-renee.be,Commerce
BE,50.6106857,5.5049429,st2m.be,Facility
BE,51.0635243,5.1793325,www.neste.com,Unknown
BE,50.8197718,5.6537321,www.vanschaikstichting.nl,Facility
BE,50.6972892,4.365118,www.puces-souris.com,Commerce
BE,51.2787695,4.418547,www.slagerijdelaet.be,Commerce
BE,51.2074497,4.9860622,www.geel.be,Facility
BE,51.2171383,4.4110449,www.kruidvat.be,Commerce
BE,50.9404869,4.7348864,dats24.be,Facility
BE,51.132599,2.6691706,www.triennalebeaufort.be,Facility
BE,51.0268913,4.9848098,www.gpdekleineprins.be,Facility
BE,51.1889107,5.1187315,www.proximus.be,Commerce
BE,50.8464113,3.6044541,www.comarkt.be,Commerce
BE,50.4557392,3.9311743,www.di.be,Commerce
BE,50.7000697,4.9892189,www.orp-jauche.be,Facility
BE,50.7370103,2.8804366,www.plugstreet1418.be,Facility
BE,50.7400823,4.1545926,pepingen.bibliotheek.be,Facility
BE,51.0458521,5.7409147,www.monumentaltrees.com,Facility
BE,50.2955878,5.2987894,sentiersdart.be,Facility
BE,50.2354042,5.2933611,www.cergroupe.be,Facility
BE,50.8019716,3.2755592,www.gits-partners.be,Facility
BE,51.1089606,5.0163016,wegenenverkeer.be,Facility
BE,51.2259113,2.9256969,www.vives.be,Facility
BE,50.9936686,3.6575165,chirodepinte.chirosite.be,Facility
BE,50.5620315,4.1573217,www.ecaussinnes.be,Facility
BE,51.3574678,4.6395832,www.storo.be,Commerce
BE,51.0496439,5.2237365,www.fit20beringen-centrum.be,Facility
BE,50.954381,5.694728,fastnedcharging.com,Facility
BE,50.4119883,4.1633671,www.chatterie-du-bosphore.be,Facility
BE,50.6663431,4.6108067,universatil.be,Facility
BE,51.063446,3.750943,www.optiekbuyl.be,Commerce
BE,50.8165023,4.7462822,superheldwarre.be,Facility
BE,51.039838,3.7245526,hvw-capac.fgov.be,Facility
BE,50.9626784,5.4678702,www.jbc.be,Commerce
BE,50.081019,5.216837,www.tellin.be,Facility
BE,50.7985075,5.2112301,www.carselect.be,Commerce
BE,51.0038689,3.8820801,www.snack-service.be,Facility
BE,51.0162347,3.6686805,www.brico.be,Commerce
BE,51.1365017,3.4180075,www.bsklavertjevier.be,Facility
BE,51.0001194,3.3270477,www.apotheekwostyn.be,Facility
BE,50.8292062,4.3351706,restosducoeur.be,Facility
BE,50.9413201,3.123423,deroepstem.org,Facility
BE,51.3149079,5.0888402,www.okay.be,Commerce
BE,50.8773413,4.3454166,cycloparking.brussels,Facility
BE,50.8258838,4.3520979,cycloparking.brussels,Facility
BE,50.7355996,4.6612123,sofico.org,Facility
BE,51.2145071,4.4423619,www.afp-antwerpen.be,Facility
BE,50.8499024,3.5978634,www.da-romeo.be,Facility
BE,51.2261546,4.4162774,www.lidl-shop.be,Commerce
BE,51.2214301,4.8408451,www.kasterlee.be,Facility
BE,50.7241214,4.8689042,www.cbc.be,Commerce
BE,51.2372438,4.4979143,www.tastefulworld.com,Unknown
BE,50.8389411,4.0094083,be.sportsdirect.com,Commerce
BE,50.8550003,2.8883092,wieltjesgracht.be,Facility
BE,50.5015037,4.7128687,www.envicontrol.com,Facility
BE,51.0827056,4.2898321,www.houtzagerijpeleman.be,Commerce
BE,50.4667145,4.2081811,www.dreambaby.be,Commerce
BE,51.3190239,3.3008091,www.beobank.be,Commerce
BE,50.708105,5.6393727,www.hauben-nihant.be,Commerce
BE,50.821391,4.3471775,justitie.belgium.be,Facility
BE,51.1507978,3.477463,www.het-jagershof.be,Facility
BE,51.2276068,4.8358155,www.biopharm.be,Facility
BE,50.7767225,4.2404135,www.gusto-spl.be,Commerce
BE,50.6761305,6.1108404,www.raeren.be,Facility
BE,51.2253907,3.2267402,www.politiebrugge.be,Facility
BE,51.0508001,3.7198219,cafe-rene.tumblr.com,Facility
BE,50.6285134,5.5663911,www.thestreetlodge.be,Unknown
BE,50.7616165,4.1863101,www.pepingsedog.be,Facility
BE,51.1595166,4.6702431,www.tourenaar.be,Facility
BE,50.5907441,4.3102442,australianice.be,Facility
BE,51.1685159,4.1401902,www.hotelmoon.be,Facility
BE,50.6065526,5.5888234,www.rtcl.be,Unknown
BE,50.8078159,4.3083756,www.belgiantrain.be,Facility
BE,50.8780359,4.4113543,www.ava.be,Commerce
BE,51.2108828,3.246676,be.casashops.com,Commerce
BE,50.9455953,3.8066036,www.delicatessenchantal.be,Commerce
BE,50.598773,5.4987835,www.incarmotor.be,Commerce
BE,51.1249946,4.3733581,www.delinde.be,Commerce
BE,50.5709972,5.2048238,www.vinalmont.be,Facility
BE,50.7110488,6.0061298,www.industrielehrpfad.be,Facility
BE,50.5025641,4.7822949,www.escaille.com,Commerce
BE,51.2084584,4.4217511,www.politieantwerpen.be,Facility
BE,50.8368136,4.381477,www.maisonantoine.be,Facility
BE,50.8312966,4.3637846,www.dndigital.eu,Facility
BE,51.0585488,5.2722989,www.magrebbreakfastlunchdinner.be,Facility
BE,50.5421534,5.4792743,www.literieprestige.be,Commerce
BE,50.7476825,3.5855163,www.bonap.be,Commerce
BE,50.8688289,4.7363534,store.totalenergies.be,Facility
BE,51.0067607,5.6079996,www.autoveiligheid.be,Facility
BE,50.2901661,5.1132161,www.hbbbb.be,Unknown
BE,50.570168,4.6879748,www.collegesaintguibert.be,Facility
BE,51.1164079,5.2610151,www.matoe.be,Commerce
BE,50.9093518,4.9514521,nijspeeters.be,Commerce
BE,51.14587,4.9298713,spie.be,Facility
BE,50.7500332,5.1332111,www.gingelom.be,Facility
BE,50.6929876,5.5363749,www.kimva.eu,Commerce
BE,50.9850319,4.8367536,www.lapasta-aarschot.be,Facility
BE,51.0788069,4.4919322,www.pvt-schorshaegen.be,Facility
BE,50.7157544,4.6191187,www.batterydiscount.be,Commerce
BE,51.0481609,5.2267817,www.hetvoorstehuis.be,Facility
BE,50.9468585,3.0913318,www.grimme.com,Facility
BE,50.9454961,4.9810446,www.mijten.be,Unknown
BE,51.0241981,5.4836686,www.degriffel-hh.be,Facility
BE,50.8862811,3.4326619,www.cappuccinowaregem.be,Facility
BE,51.1098508,4.3646567,vospoorten.be,Commerce
BE,50.8368228,4.0175168,www.hoteldecroone.be,Facility
BE,51.2057959,4.4123442,www.zas.be,Facility
BE,50.6296173,5.6042286,monspar.be,Commerce
BE,51.0390143,5.3985891,www.groeptimmers.com,Commerce
BE,51.2135665,4.3980733,www.brico.be,Commerce
BE,51.1463554,4.3787737,www.riba.be,Commerce
BE,51.2072382,3.1929765,www.goed.be,Commerce
BE,50.8464842,4.30814,cycloparking.brussels,Facility
BE,49.5593967,5.7450681,bebesnature.be,Facility
BE,50.9899669,4.8408743,www.slagerijgeertheidi.be,Commerce
BE,51.2219684,4.230659,www.gustaafseghers.be,Unknown
BE,51.0882837,3.489676,www.aalter.be,Facility
BE,51.2080759,3.3179988,www.viven.be,Unknown
BE,51.2381221,4.4825077,www.baldwinfilter.com,Unknown
BE,50.8023754,5.1727087,www.fedasil.be,Facility
BE,49.5903431,5.5543285,www.cecespoir.be,Facility
BE,50.8357687,3.81943,www.poortbossen.be,Facility
BE,51.0405226,4.4441344,lavista-restaurant.be,Facility
BE,51.1734794,3.6855255,inventaris.onroerenderfgoed.be,Facility
BE,50.6421224,5.5854468,www.destenay.be,Facility
BE,51.0810964,4.8135057,www.geral.be,Facility
BE,51.0144711,3.7027076,dbz.be,Facility
BE,50.8124477,4.318856,www.villo.be,Facility
BE,50.7974495,3.1153187,www.in-print.be,Commerce
BE,51.0972839,2.5741355,www.superzeezicht.be,Facility
BE,51.331706,3.2019715,www.bzyc.be,Facility
BE,50.7796697,4.2442275,mistergreek.be,Facility
BE,51.0025287,3.7509171,www.bonap.be,Commerce
