country,lat,lon,website,place_type
FI,61.1105225,22.1678746,www.villamajatalot.fi,Facility
FI,67.4127713,26.5903424,asiointi.poliisi.fi,Facility
FI,60.1647232,24.9508903,zhen.fi,Facility
FI,60.1854997,24.9827788,www.hamhelsinki.fi,Facility
FI,60.1545463,24.8804491,www.lidl.fi,Commerce
FI,64.1849548,29.5769597,www.lentuankoski.fi,Facility
FI,60.217516,24.810422,www.espoonseurakunnat.fi,Facility
FI,64.113629,28.230973,www.vuokatti.fi,Facility
FI,60.2588493,24.849118,www.managaia.com,Commerce
FI,61.4991792,23.7834296,www.pirha.fi,Facility
FI,63.7105641,29.9106629,www.pohjoiskarjalankelkkaurat.fi,Facility
FI,64.6845762,24.4886992,www.raahentanssiklubi.com,Facility
FI,60.1805235,24.924872,barteos.fi,Facility
FI,60.9866521,24.4411287,www.kktavastia.fi,Commerce
FI,60.4499212,22.2704732,www.fancylook.fi,Commerce
FI,60.7719194,23.6785311,www.valkeaniemenpirtti.fi,Facility
FI,60.2499004,24.8987179,reittiopas.hsl.fi,Facility
FI,60.29348,25.0370159,www.saastopankki.fi,Commerce
FI,66.5029825,25.7256512,ohjaamot.fi,Facility
FI,61.1446672,21.3028683,www.kylmapihlaja.com,Facility
FI,62.2460588,26.1390936,www.nokkakivi.fi,Facility
FI,67.6040318,24.1693801,shop.destinationlapland.com,Facility
FI,60.6133377,24.8519029,www.vehkacenter.com,Facility
FI,60.867559,26.6982054,www.ruokapaikka.fi,Facility
FI,60.4889033,26.8988355,www.kotopas.fi,Unknown
FI,68.0336992,24.2742565,nationalparks.fi,Facility
FI,60.184962,24.9532631,www.fleida.fi,Commerce
FI,60.1438864,20.6915251,www.alandstrafiken.ax,Facility
FI,60.2753314,25.0979623,www.suomi.fi,Facility
FI,60.180576,24.7606603,www.scc.fi,Commerce
FI,60.6167413,24.8406181,www.hyvinkaa.fi,Facility
FI,60.4592264,22.2749784,www.tiedekoulu.fi,Facility
FI,60.293398,25.0345996,www.picnic.fi,Facility
FI,60.8740139,26.7155415,kaakau.fi,Facility
FI,60.3159511,25.0243426,aikataulut.reittiopas.fi,Facility
FI,60.238391,24.9017587,reittiopas.hsl.fi,Facility
FI,61.0086841,24.3960738,www.hameenlinna.fi,Facility
FI,61.503205,23.7616294,www.nysse.fi,Facility
FI,62.2508385,29.7399963,www.pohjoiskarjalankelkkaurat.fi,Facility
FI,62.2739822,25.7785917,www.tmtpro.fi,Commerce
FI,66.3164258,23.6712997,ylitornio.fi,Facility
FI,61.5022439,23.7812413,www.vaarinvarasto.fi,Commerce
FI,68.4316093,26.9217841,www.luontoon.fi,Facility
FI,60.1875026,24.9187551,www.huolto39.fi,Facility
FI,63.1016515,21.6033782,www.vaasa.fi,Facility
FI,60.4857692,22.0679809,mallassepat.fi,Commerce
FI,60.3040441,25.1042724,reittiopas.hsl.fi,Facility
FI,60.1715476,24.9343987,www.hamhelsinki.fi,Facility
FI,63.3597277,23.4669688,www.liikenneasemamantyhovi.fi,Facility
FI,60.1389834,24.9893811,www.restaurantwalhalla.com,Facility
FI,60.2125326,24.786289,www.espoo.fi,Unknown
FI,62.2395319,25.7414327,torkkelijewellery.com,Commerce
FI,61.8392406,22.4687604,www.sotilaskoti.com,Facility
FI,63.1400852,27.8595677,www.kuopio.fi,Unknown
FI,61.1129428,25.9288733,www.matkakeidas.fi,Unknown
FI,61.1563218,25.6026006,www.powertool-sahko.fi,Commerce
FI,60.1616648,24.738227,parati.fi,Commerce
FI,61.4945513,23.9138248,mikonleipa.fi,Unknown
FI,62.8927686,27.6985944,ravintolalaivatoivo.fi,Facility
FI,61.5612946,26.9488822,www.mikkelinmoottorikerho.fi,Facility
FI,60.1884846,24.9184702,www.hautaushuolto.com,Commerce
FI,61.5667088,21.5581319,www.kotipizza.fi,Facility
FI,64.8618925,25.5219134,www.abcasemat.fi,Facility
FI,60.1652466,24.9011716,www.comptel.com,Facility
FI,60.2988165,25.1052234,www.king4fit.fi,Facility
FI,62.3016408,27.1532035,pieksamakiseura.fi,Facility
FI,62.5506547,24.0688732,www.besthamburgers.fi,Facility
FI,60.2149647,24.7604376,www.gogolflounge.fi,Facility
FI,60.1698223,24.9272796,www.hotelhelka.com,Facility
FI,64.8092802,25.4117849,www.parkhotelliminka.fi,Facility
FI,60.2272575,25.0086941,www.mustijamirri.fi,Commerce
FI,60.1598393,24.6945336,www.liila.fi,Commerce
FI,63.7702373,24.2376511,www.tomoke.com,Unknown
FI,60.2902668,24.9657398,www.aleksi13.fi,Commerce
FI,61.4950884,23.7672973,www.finnpark.fi,Facility
FI,66.164749,29.1208292,www.s-kaupat.fi,Commerce
FI,60.2014904,24.6699738,www.espoo.fi,Unknown
FI,60.1844143,24.9547439,www.ansa-kauppa.com,Commerce
FI,60.4512571,22.2588639,www.linnateatteri.fi,Facility
FI,61.7199938,26.6504043,www.hirvensalmi.fi,Unknown
FI,65.8551184,24.1488335,www.ecitybedandbreakfast.com,Facility
FI,60.9525018,21.4352826,www.pyharanta.com,Facility
FI,60.8259223,23.6211233,www.sotka.fi,Commerce
FI,62.5430755,28.8008971,levaniemi.net,Facility
FI,62.3176705,27.8563838,www.motonet.fi,Commerce
FI,66.3479182,28.2920222,posiolapland.com,Facility
FI,64.9974762,25.4776151,www.paljekirppis.fi,Commerce
FI,60.1689836,24.9460654,www.hamhelsinki.fi,Facility
FI,65.0061052,25.7955049,www.luontoon.fi,Facility
FI,60.208141,24.7898436,www.grillille.fi,Facility
FI,60.2399136,24.7014931,www.espoo.fi,Facility
FI,62.85637,27.6427751,peda.net,Facility
FI,67.5423897,24.4939463,www.snowvillage.fi,Facility
FI,60.2783388,24.9717046,www.nansoshop.com,Commerce
FI,60.310534,25.03073,kaupunkipyorat.hsl.fi,Facility
FI,60.4851034,22.164672,www.raisionseurakunta.fi,Facility
FI,60.2986926,25.337466,reittiopas.hsl.fi,Facility
FI,61.4982077,23.7933872,www.hius7.com,Commerce
FI,60.4821091,22.3124853,masino.fi,Facility
FI,60.4538143,22.2549834,www.cuppint.fi,Facility
FI,61.6584573,23.1822004,www.hesburger.fi,Facility
FI,64.8465934,29.3185627,www.metsa.fi,Unknown
FI,62.8750241,27.6626871,www.isokallanpanimo.fi,Commerce
FI,62.9193012,27.6351696,www.punainenristi.fi,Facility
FI,63.165552,28.089749,www.savontarviketalo.fi,Facility
FI,60.2476978,24.8618785,kotomart.fi,Facility
FI,60.1790796,24.9498288,reittiopas.hsl.fi,Facility
FI,61.6890673,27.2738163,www.s-kaupat.fi,Commerce
FI,60.3763181,21.9434669,www.bcb-boats.fi,Commerce
FI,65.2484758,29.1217941,www.metsa.fi,Facility
FI,59.9088276,23.2956715,premarin.fi,Facility
FI,60.2474627,24.8603644,www.menekit.fi,Facility
FI,64.1757411,27.6421091,www.kajaaninmoottorikelkkayhdistys.net,Facility
FI,60.4475554,22.2729937,www.turku.fi,Facility
FI,60.1718137,24.9235032,www.hamhelsinki.fi,Facility
FI,61.6784129,24.3567657,www.s-kaupat.fi,Commerce
FI,60.4608051,22.2655964,www.digiaura.fi,Commerce
FI,60.6315591,24.850921,www.viridishoitola.fi,Commerce
FI,61.4211403,26.8794463,www.mpmk.net,Unknown
FI,64.8075476,25.9916193,www.alko.fi,Commerce
FI,60.1675542,24.7131869,palvelukartta.hel.fi,Facility
FI,60.1859581,24.9733917,oranssiasunnot.fi,Facility
FI,61.4747792,23.9465762,www.kangasala.fi,Facility
FI,60.3339326,24.3198274,paivikinkukka.ekukka.fi,Commerce
FI,64.8828615,28.9138216,www.ammanleipa.fi,Facility
FI,62.7707168,22.830435,www.hostelbjörkenheim.fi,Facility
FI,62.0645869,28.3082452,www.finntrek.com,Facility
FI,60.3456697,25.1348694,www.sivistysvantaa.fi,Facility
FI,60.2231147,24.9354405,www.vrtennis.net,Facility
FI,62.2421447,23.7738775,latauskartta.fi,Facility
FI,62.1771603,27.8825414,kartanogolf.fi,Facility
FI,62.2423516,25.7463877,www.mysteeri.com,Facility
FI,60.0435294,23.9983745,www.westernuusimaamuseums.fi,Facility
FI,63.4909872,26.6166463,rauhanyhdistys.fi,Facility
FI,61.3130198,23.7533293,www.tokmanni.fi,Commerce
FI,62.8977619,27.8461217,www.roinilanhoitokoti.fi,Facility
FI,60.1692805,24.9384905,www.hamhelsinki.fi,Facility
FI,62.3142678,29.6310986,www.palvelukotiviherpolku.fi,Unknown
FI,60.3915752,25.1087123,www.keravanpihvitupa.fi,Facility
FI,68.7174774,21.4203449,retkipaikka.fi,Facility
FI,60.1674358,24.9340064,eshop.wurth.fi,Facility
FI,67.6184212,24.1223369,shop.destinationlapland.com,Facility
FI,60.5088691,25.7690707,www.kotielain.com,Facility
FI,61.0596854,28.1949402,www.saimaan-tietokone.fi,Commerce
FI,60.2101137,25.0798622,www.aava.fi,Facility
FI,60.3275256,25.1210918,aikataulut.reittiopas.fi,Facility
FI,62.601874,29.7634153,www.suomalainen.com,Commerce
FI,61.965461,25.2468575,www.jamkk.fi,Unknown
FI,60.1649537,24.9419103,bar9.net,Facility
FI,64.9549418,25.5424033,www.ouka.fi,Facility
FI,60.3256254,24.2739847,seisakki.fi,Facility
FI,61.0622348,28.1870572,prinsessaarmaada.fi,Facility
FI,62.8636806,27.6127692,www.k-ruoka.fi,Commerce
FI,60.9269564,26.0145498,viheraho.com,Unknown
FI,60.5590456,21.4103472,visitkustavi.fi,Facility
FI,60.3283762,25.0605028,aikataulut.reittiopas.fi,Facility
FI,61.4401516,23.8013799,pjhoy.fi,Facility
FI,60.2818969,24.8482254,aikataulut.reittiopas.fi,Facility
FI,65.0089848,25.4790437,www.oulutestaa.fi,Facility
FI,63.6515409,26.6185169,www.ekaera.fi,Commerce
FI,60.4645339,26.9417165,www.canttiini.com,Facility
FI,61.496103,23.7760825,www.nysse.fi,Facility
FI,60.277749,24.812805,suomenratsutarvike.fi,Facility
FI,63.4793934,23.0082572,www.neste.fi,Facility
FI,60.4868552,24.6510193,www.pizzeriakulma.fi,Facility
FI,60.987261,25.5142167,www.hollolanpizzeria.fi,Facility
FI,61.140821,22.1837684,vaihtomatto.com,Commerce
FI,65.9645637,29.1883283,www.kuusamo.fi,Facility
FI,60.1002017,19.9442552,www.hotellarkipelag.ax,Facility
FI,61.4619021,23.8889209,toas.fi,Unknown
FI,63.7800334,28.1394893,www.vuokatti.fi,Facility
FI,61.1536666,22.6796377,www.lansisuomenopisto.fi,Facility
FI,60.2103619,24.8790544,bowling.fi,Facility
FI,62.7999789,30.1561994,www.enonvene.fi,Facility
FI,60.9980083,24.4749689,www.hameenlinnantaidemuseo.fi,Facility
FI,62.9255223,27.627523,norlandiapaivakodit.fi,Facility
FI,60.3938512,25.6649765,www.tasteravintolat.fi,Facility
FI,60.4950609,22.2539784,www.turunautotyo.fi,Commerce
FI,65.8910207,28.150824,www.posionkelkkareitit.com,Facility
FI,60.2924765,24.9637464,www.jackjones.com,Commerce
FI,60.2601653,24.8433877,aikataulut.reittiopas.fi,Facility
FI,61.9412774,26.4741001,www.puulankelkkailijat.com,Unknown
FI,61.4983166,23.7713272,www.r-kioski.fi,Commerce
FI,64.9983447,25.4546068,www.ouka.fi,Facility
FI,61.0444423,28.1797725,www.neste.fi,Facility
FI,60.486365,22.3269784,scason.fi,Facility
FI,60.4398042,22.2261597,vayla.fi,Facility
FI,60.0958562,19.9316807,www.gasthemneptun.com,Facility
FI,60.4519631,22.2726618,www.bentley.com,Facility
FI,61.2945045,23.5063514,www.narvankylapanimo.com,Facility
FI,60.3949309,25.660424,a-yhtiot.fi,Facility
FI,68.6601155,27.5406293,www.hotellikultahippu.fi,Facility
FI,60.1874674,24.9623511,www.picnic.fi,Facility
FI,62.1642863,23.3412026,www.kelkkailu.fi,Facility
FI,66.8362111,28.6720917,loma.salla.fi,Unknown
FI,61.0420552,28.2181387,www.lidl.fi,Commerce
FI,60.4529117,22.693561,mammaj.fi,Unknown
FI,60.17282,24.2068239,reittiopas.hsl.fi,Facility
FI,60.2771194,24.8107245,www.masku.com,Unknown
FI,60.241776,24.8533427,nuorten.hel.fi,Facility
FI,60.3864106,25.230375,reittiopas.hsl.fi,Facility
FI,60.6789093,21.9880895,www.mynis.fi,Facility
FI,60.4084557,22.3749029,ravintolatsingtao.com,Facility
FI,60.1601093,24.8808389,smartmile.eu,Commerce
FI,60.9953118,24.4646629,raflaamo.fi,Facility
FI,60.4863902,22.092671,pianpakari.com,Facility
FI,61.8666704,28.895543,www.k-ruoka.fi,Commerce
FI,60.3263598,25.0720513,www.vantaanseurakunnat.fi,Facility
FI,60.2019195,24.8732592,reittiopas.hsl.fi,Facility
FI,60.1885231,24.9837397,www.krungthepthaibistro.fi,Facility
FI,61.4763258,23.7601663,www.tampere.fi,Facility
FI,60.0687154,23.661123,www.vr.fi,Facility
FI,60.3745232,26.32615,www.fortum.fi,Unknown
FI,60.2204219,24.9299945,www.hekaoy.fi,Unknown
FI,60.2170463,25.081262,hel.fi,Facility
FI,69.5601688,26.3556532,www.nationalparks.fi,Facility
FI,60.161362,24.9413984,www.roobertinherkku.fi,Commerce
FI,63.095839,21.6111516,www.pizzabistromarcopolo.fi,Facility
FI,62.6177455,29.7624527,vianor.fi,Commerce
FI,62.2471179,26.1362184,www.lumikiitajat.fi,Unknown
FI,61.711219,27.3348427,mmkry.fi,Unknown
FI,60.184443,24.9683585,www.hamhelsinki.fi,Facility
FI,63.8989812,23.8898265,www.lametek.fi,Commerce
FI,66.948056,26.1834544,www.etiainen.fi,Facility
FI,60.9926756,24.4568618,www.yliopistonapteekki.fi,Facility
FI,63.1512926,29.9878767,www.wanhankoulunpuoti.fi,Facility
FI,62.5782457,22.973572,www.ep-moke.fi,Facility
FI,67.6039553,24.1723233,www.laplandhotels.com,Facility
FI,65.185149,26.6763417,www.pudasjarvi.fi,Facility
FI,66.4464991,26.288491,www.rovaniemi.fi,Facility
FI,60.3827308,25.0451483,r-stenvall.fi,Facility
FI,68.373161,24.2072754,www.tosilappi.fi,Unknown
FI,63.6224902,28.3272869,www.luontoon.fi,Facility
FI,60.1495126,24.6553165,www.gateau.fi,Commerce
FI,64.2965535,24.969904,oulaistentaru.net,Facility
FI,63.6207991,22.7421348,www.remsongolf.fi,Facility
FI,61.9145128,24.379605,www.kelkkailu.fi,Unknown
FI,60.3355791,25.2328806,reittiopas.hsl.fi,Facility
FI,60.164808,24.9281363,www.groom.fi,Commerce
FI,62.913899,30.2528554,www.enonapteekki.fi,Facility
FI,60.3173171,24.9638185,www.sspfinland.fi,Facility
FI,60.2096115,24.9646633,www.hel.fi,Facility
FI,61.4967108,23.7676208,purebite.fi,Facility
FI,60.2885615,24.191632,peda.net,Facility
FI,61.3250722,23.7490989,www.k-market.fi,Commerce
FI,60.2491827,24.2989817,reittiopas.hsl.fi,Facility
FI,62.4313336,22.1632514,kauhajoki.fi,Facility
FI,62.6881895,21.9822835,www.joukosjoblom.fi,Commerce
FI,60.1707129,24.9412167,www.hamhelsinki.fi,Facility
FI,61.5801811,27.2258658,mmkry.fi,Unknown
FI,66.6277185,25.9864546,www.rovaniemi.fi,Facility
FI,60.4459259,22.4112364,www.kaarina.fi,Facility
FI,63.5481815,23.6953519,www.kaustisenhelluntaiseurakunta.com,Facility
FI,61.1800772,22.6971866,brotherspizza.fi,Facility
FI,62.2147377,25.720811,www.hesburger.fi,Facility
FI,60.0785609,23.6958372,www.larkkulla.net,Unknown
FI,60.9807119,24.4793002,www.suomenliivineulomo.fi,Commerce
FI,61.6009796,21.8549171,www.k-ruoka.fi,Commerce
FI,61.2613605,27.6955439,savitaipaleenmkk.fi,Unknown
FI,62.5392221,28.6275,www.heinavedenmk.net,Unknown
FI,60.2020134,24.7830404,www.tokmanni.fi,Commerce
FI,60.6346388,27.2248406,haminanseurakunta.fi,Unknown
FI,61.1284905,21.5110574,jubupizza.fi,Facility
FI,63.0963413,21.6303727,www.fantoy.fi,Commerce
FI,60.2350684,24.0337159,peda.net,Facility
FI,60.6102617,24.8577714,napalmi.com,Facility
FI,60.294,25.0185446,aikataulut.reittiopas.fi,Facility
FI,62.3727092,29.6941508,www.ely-keskus.fi,Unknown
FI,60.251592,25.013691,malminnova.fi,Commerce
FI,60.2177043,24.8116418,www.javeko.fi,Commerce
FI,62.3403168,25.544174,www.lumikiitajat.fi,Facility
FI,59.9215612,22.4100989,kasnas.com,Facility
FI,62.2422821,25.7195761,www.jyvaskyla.fi,Facility
FI,62.2402937,23.9458941,www.kelkkailu.fi,Facility
FI,61.5385494,21.6725596,www.k-ruoka.fi,Commerce
FI,60.1949911,24.9584324,www.kauppalehti.fi,Unknown
FI,60.1684671,24.9378321,www.prokadentaitajat.fi,Commerce
FI,61.1570042,25.3051102,www.asmkk.fi,Unknown
FI,60.1832293,24.9538253,ipikulmakuppila.fi,Facility
FI,62.0664076,28.3010596,www.k-ruoka.fi,Commerce
FI,64.7629939,26.4056297,kinnusenmylly.fi,Facility
FI,60.4578697,22.2673675,www.neste.fi,Facility
FI,63.5455252,23.5111205,www.s-kaupat.fi,Commerce
FI,67.6048205,24.1827248,lostinlapland.fi,Unknown
FI,60.1736532,24.8106679,aikataulut.reittiopas.fi,Facility
FI,60.4556477,22.2704662,tfo.fi,Facility
FI,60.9832629,25.6522605,ravintolaamazona.fi,Facility
FI,60.4397284,22.2268011,www.aboamare.fi,Facility
FI,62.2564473,25.7738026,www.alko.fi,Commerce
FI,62.595391,29.7696807,www.k-ruoka.fi,Commerce
FI,60.4720447,25.1149745,huoltohamalainen.fi,Commerce
FI,60.4770772,25.1036632,www.jarvenpaanuusiapteekki.fi,Facility
FI,62.2568452,24.6848426,www.keuruslvi.fi,Commerce
FI,60.9828158,25.6564978,www.terveystalo.com,Facility
FI,60.4417089,23.0527706,halikonhehku.yhdistysavain.fi,Facility
FI,62.6015042,29.7422132,www.joensuu.fi,Facility
FI,60.2020695,24.9573076,www.luomus.fi,Facility
FI,64.2821692,25.8691318,rauhanyhdistys.fi,Facility
FI,61.1310659,21.4946063,www.utu.fi,Facility
FI,60.9962998,24.4664901,www.kukkakauppapioni.com,Commerce
FI,60.2073542,24.9211121,www.citrus.fi,Facility
FI,62.8656487,27.6342666,www.caravanlarvanto.fi,Commerce
FI,60.2241362,24.8974578,reittiopas.hsl.fi,Facility
FI,67.8641353,29.1978181,www.luontoon.fi,Facility
FI,60.261363,24.8535421,www.vantaa.fi,Facility
FI,60.5285182,24.1981889,www.karkkila.fi,Facility
FI,60.1586092,24.8688444,palvelukartta.hel.fi,Facility
FI,62.2407488,25.7421509,www.itronic.fi,Commerce
FI,61.1711655,28.7727157,pizza-online.fi,Facility
FI,60.4161714,25.0921571,reittiopas.hsl.fi,Facility
FI,60.2262197,25.1208585,www.cramo.com,Facility
FI,61.5493786,29.5037349,www.ekpelastuslaitos.fi,Unknown
FI,64.9782766,25.5605514,www.neste.fi,Facility
FI,62.9582963,22.946976,www.ep-moke.fi,Unknown
FI,64.3866873,25.0843766,www.kotinet.com,Facility
FI,62.8236805,27.6042974,skechers.fi,Commerce
FI,60.2229535,24.8549773,meelom.fi,Facility
FI,60.8657652,26.6891134,www.putkiradiomuseo.fi,Facility
FI,60.4486029,22.2405983,www.jt.fi,Facility
FI,61.8054179,22.3957486,www.rkpartners.fi,Facility
FI,60.4659139,22.2485749,homesiivous.fi,Facility
FI,60.2718857,24.127726,peda.net,Facility
FI,60.1269875,23.537752,www.lukaali.fi,Facility
FI,61.5121636,23.2517421,siuronkoirahoitola.com,Facility
FI,61.8699879,28.87867,pizzeriacapero.net,Facility
FI,65.7622922,24.6165197,www.kemi.fi,Facility
FI,60.4496198,22.2802726,www.evankeliumintalo.fi,Facility
FI,66.5282991,24.6441349,www.lly.fi,Facility
FI,60.2697564,24.4426275,www.mariannensalonki.com,Commerce
FI,60.4527569,22.1557112,www.s-kaupat.fi,Commerce
FI,64.2295222,27.7868188,www.kajaaninmoottorikelkkayhdistys.net,Facility
FI,60.1730732,24.9393613,www.bierhaus.fi,Facility
FI,60.4961191,22.2251111,www.tulikivi.fi,Commerce
FI,62.7776636,21.1814479,www.kyrktorget.fi,Facility
FI,62.0093998,25.1566523,www.kelkkailijat.net,Unknown
FI,62.3938504,30.8611735,www.pohjoiskarjalankelkkaurat.fi,Unknown
FI,60.2558551,24.9163074,korkee.fi,Facility
FI,63.8379444,23.1284421,www.kokkolansuomalainenseurakunta.fi,Facility
FI,60.4479335,22.2530327,www.turku.fi,Facility
FI,60.297807,24.8549121,aikataulut.reittiopas.fi,Facility
FI,60.1700749,24.9395098,www.hotelliseurahuone.fi,Facility
FI,60.47766,24.8333453,touhula.fi,Facility
FI,62.628071,26.2929404,www.k-ruoka.fi,Commerce
FI,60.1987974,24.930081,www.eastmarkethelsinki.com,Facility
FI,65.0544517,25.4596155,www.rinnekodit.fi,Facility
FI,63.0784128,21.65468,voas.fi,Unknown
FI,60.3026567,25.0522737,varia.vantaa.fi,Commerce
FI,60.1479611,24.7553284,www.nokkalanmajakka.fi,Facility
FI,60.8258831,23.6224977,www.toyotaautocenter.fi,Commerce
FI,63.0294479,29.953573,www.luontoon.fi,Facility
FI,62.2820822,25.7162411,pilkepaivakodit.fi,Facility
FI,60.2114635,25.0814113,www.komennusmiehet.fi,Facility
FI,62.9740462,23.0263687,www.neste.fi,Facility
FI,61.5012566,23.7075722,4h.fi,Unknown
FI,60.1950172,24.958495,pizza-online.fi,Facility
FI,64.994919,25.4572213,www.asuntovuokraus.fi,Unknown
FI,61.5138004,23.6723613,www.wuf.fi,Commerce
FI,60.159707,24.9549162,www.punaisenristinkauppa.fi,Commerce
FI,60.2748118,24.7147195,reittiopas.hsl.fi,Facility
FI,60.1812224,24.9575767,www.madonnarestaurant.fi,Facility
FI,67.145397,26.9283046,aarnikota.fi,Facility
FI,60.1876662,24.9631396,www.shabuhousegroup.com,Facility
FI,60.2407216,24.7133368,www.espoo.fi,Facility
FI,61.7004934,27.3471149,www.visulahti.fi,Facility
FI,60.2619846,24.7228676,www.juhlamaailma.fi,Facility
FI,60.6317189,24.8643731,www.kauppakeskuswilla.fi,Commerce
FI,61.674396,26.8619298,www.hirvensalmi.fi,Unknown
FI,63.682513,24.343325,www.tomoke.com,Facility
FI,60.3899956,25.606769,www.wurth.fi,Commerce
FI,61.0294589,28.1562094,www.lappeenranta.fi,Facility
FI,62.7050891,29.8742087,pks.fi,Unknown
FI,61.1730897,25.5414085,www.attendo.fi,Facility
FI,60.1643929,22.9977643,www.katiskanmaki.fi,Facility
FI,61.4453467,23.8444559,www.k-ruoka.fi,Commerce
FI,60.4696005,22.0306837,www.naantali.fi,Facility
FI,62.8933072,22.6459133,www.ep-moke.fi,Unknown
FI,60.2312919,25.1276042,hsl.fi,Facility
FI,60.2058527,24.6491648,www.espoonvpk.fi,Facility
FI,61.1140128,26.9826314,www.valkealansotilaskoti.fi,Commerce
FI,61.4929416,23.7682205,www.xslelut.fi,Commerce
FI,61.49892,27.2289532,www.tuukkalantila.com,Facility
FI,60.9801173,25.7106209,pizza-online.fi,Facility
FI,61.4757956,23.792612,pesulax.fi,Commerce
FI,62.2622889,21.4859598,www.hesburger.fi,Facility
FI,60.2453998,24.8587003,www.hel.fi,Unknown
FI,62.2890272,26.2399251,isautomotive.fi,Commerce
FI,60.19699,24.8832904,www.lemmikkikulma.fi,Commerce
FI,66.08716,24.8103622,www.tervola.fi,Facility
FI,62.2406469,23.7709119,www.virtainruokapaja.fi,Facility
FI,67.6132842,24.1804113,www.laplandsenses.fi,Facility
FI,61.4985828,23.7542641,sitko.pizza,Facility
FI,60.2103657,24.7284047,www.kotipizza.fi,Facility
FI,63.0736105,27.6590532,www.studiocuttingcrew.biz,Commerce
FI,61.8633197,28.9175447,www.vr.fi,Facility
FI,60.4728558,25.0883662,baromega.fi,Facility
FI,60.1990558,24.9686465,reittiopas.hsl.fi,Facility
FI,62.2933434,24.8110469,www.lantk-smk.fi,Unknown
FI,63.8317513,23.1274111,osuuskauppakpo.fi,Commerce
FI,60.187998,25.015392,hsl.fi,Facility
FI,66.4999307,25.7117919,residuum.fi,Facility
FI,60.5481028,24.1884984,liimamaki.fi,Facility
FI,67.6034847,24.1717594,martinmaki.net,Commerce
FI,60.2714591,24.8065532,www.xn--polkupyrkirppis-7kb81a.fi,Commerce
FI,60.2394953,24.8460263,www.posti.fi,Commerce
FI,60.9528416,22.8603281,www.loimaa.fi,Facility
FI,66.8752744,26.0219923,www.rovaniemi.fi,Facility
FI,60.2902578,25.0439637,bistroliekki.fi,Facility
FI,60.2327557,24.8898407,www.myhelsinki.fi,Facility
FI,61.5277424,23.703532,www.k-ruoka.fi,Commerce
FI,61.4934009,21.7859301,www.visitpori.fi,Facility
FI,60.1620492,24.946528,perhejaperinto.fi,Facility
FI,62.9302324,27.6836834,www.varastokirjasto.fi,Facility
FI,60.4696048,22.2061616,www.kehystamoturku.fi,Commerce
FI,63.9299078,24.9563717,www.nivalanseurakunta.fi,Facility
FI,60.1631872,24.915555,www.hamhelsinki.fi,Facility
FI,60.6350226,24.8538695,www.hyria.fi,Facility
FI,61.4698619,21.8029274,www.k-rauta.fi,Commerce
FI,60.5901961,22.1437797,itello.fi,Facility
FI,64.8835924,28.9073333,www.suomussalmenapteekki.fi,Facility
FI,60.2697279,24.8526592,www.hotlips.fi,Commerce
FI,60.3758821,25.0801243,reittiopas.hsl.fi,Facility
FI,60.4809805,22.3260499,virte.fi,Commerce
FI,60.7024871,22.7570069,www.kyronkultakello.fi,Commerce
FI,69.8628364,27.387913,www.luontoon.fi,Facility
FI,60.1447431,24.6569206,www.esbo.fi,Facility
FI,60.2215671,25.1758619,www.portofhelsinki.fi,Facility
FI,60.1991565,24.9248378,hsl.fi,Facility
FI,62.8367753,27.6405832,peda.net,Facility
FI,60.2637397,25.2595907,www.veneakselisto.com,Commerce
FI,61.455032,23.8706585,www.asennusaran.com,Commerce
FI,64.6843901,24.4764621,www.hittimaatti.fi,Commerce
FI,62.8981863,27.6850937,www.lahitapiola.fi,Facility
FI,63.3187456,30.0239805,www.lieksanapteekki.fi,Facility
FI,60.8514469,23.0564938,www.heikkirantanen.fi,Facility
FI,62.6037359,29.7400733,www.fazerfoodco.fi,Facility
FI,61.4540665,23.8456029,toas.fi,Unknown
FI,60.4553249,22.3008377,www.alibabaturku.fi,Facility
FI,60.7348066,24.770388,www.pizzastop.fi,Facility
FI,61.0091737,24.4116285,jysk.fi,Commerce
FI,60.4575054,22.2582302,www.citrus.fi,Facility
FI,66.7729442,28.7444903,loma.salla.fi,Facility
FI,60.3805991,23.6155965,www.neste.fi,Facility
FI,60.207464,25.1446361,www.hesburger.fi,Facility
FI,67.6122376,24.1330233,shop.destinationlapland.com,Facility
FI,60.1793742,24.9468104,www.ravintolameripaviljonki.fi,Facility
FI,60.871975,26.6570926,www.silmaasema.fi,Commerce
FI,60.334807,25.2793448,reittiopas.hsl.fi,Facility
FI,62.8810485,27.6817165,kynnys.fi,Facility
FI,60.9779839,25.6292801,xn--ykkskodit-27a.fi,Facility
FI,60.1173115,19.9418184,www.gringo.ax,Facility
FI,60.211451,25.065792,hsl.fi,Facility
FI,62.4356347,24.0905379,susemk.fi,Facility
FI,60.6356812,25.3206098,www.phoravintola.fi,Facility
FI,62.8195391,23.4995061,www.kuortaneenapteekki.fi,Facility
FI,63.9848639,25.7598423,www.paakarinpysakki.fi,Facility
FI,60.1811228,24.9288346,www.vihreat.fi,Facility
FI,64.1175087,29.5180431,www.kuhmo.fi,Facility
FI,62.6045191,29.7404891,varnitsa.wordpress.com,Facility
FI,60.1679395,24.8059585,www.tuxera.com,Facility
FI,65.9870993,25.7864618,www.eraluvat.fi,Unknown
FI,60.6197038,24.8446395,www.kirjavantolpanapteekki.fi,Facility
FI,64.1318262,28.3878316,www.sotkamo.fi,Facility
FI,60.2907737,24.9686848,www.tacobell.fi,Facility
FI,60.9790773,24.4844334,hmllatusoutu.sporttisaitti.com,Unknown
FI,64.1300039,28.3812326,www.neste.fi,Facility
FI,61.4974538,23.7706085,donfranco.fi,Facility
FI,63.5709129,27.1870091,www.luontovaruste.fi,Commerce
FI,61.4946197,23.5962126,www.punainenristi.fi,Unknown
FI,60.1597799,24.74061,hsl.fi,Facility
FI,60.3168042,20.9954019,www.lappo.net,Facility
FI,60.1670241,24.9344918,hrmy.fi,Facility
FI,65.12682,29.7884947,www.metsa.fi,Facility
FI,66.542951,25.8446496,www.santaclausholidayvillage.fi,Facility
FI,62.353826,30.1286263,www.pohjoiskarjalankelkkaurat.fi,Unknown
FI,60.1245189,19.9436308,www.holmbergs.ax,Commerce
FI,61.2874665,22.6963284,sastamala.fi,Facility
FI,60.4729586,23.9788079,www.s-kaupat.fi,Commerce
FI,60.1639933,24.9105415,www.carwash.fi,Facility
FI,60.1963607,24.9410497,www.livesaatio.fi,Commerce
FI,61.3225327,27.1431469,www.mpmk.net,Unknown
FI,60.1836037,24.9456791,www.helsinginseurakunnat.fi,Facility
FI,60.1577442,24.9420427,www.eiransairaala.fi,Facility
FI,61.8953638,24.5884633,www.kelkkailu.fi,Unknown
FI,60.1924876,24.9102981,www.crystalbeauty.fi,Commerce
FI,60.805137,25.7333558,orimattila.fi,Facility
FI,64.9987563,25.6143922,touhula.fi,Facility
FI,61.2152345,23.7580148,a-duo.fi,Commerce
FI,60.1697522,24.9419539,www.rosebud.fi,Commerce
FI,61.2457285,27.9127275,www.taipalsaarenmoottorikelkkailijat.fi,Unknown
FI,65.0023641,25.4627113,tempnor.fi,Facility
FI,60.2136069,25.0814902,www.aprikoosi.com,Commerce
FI,60.4370975,22.2410167,www.ravintolanobi.fi,Facility
FI,60.331727,25.06126,kaupunkipyorat.hsl.fi,Facility
FI,62.2214465,24.5282243,www.lantk-smk.fi,Unknown
FI,60.268214,24.8762406,padelvantaa.com,Facility
FI,60.1688869,24.9376319,www.jc.fi,Commerce
FI,62.8718279,24.2106795,www.s-kaupat.fi,Commerce
FI,60.459635,26.2313658,olympos-pizzeria.com,Facility
FI,60.959509,27.7860828,www.kelkkakerho.fi,Unknown
FI,60.4556126,22.2760348,www.turku.fi,Facility
FI,60.8675611,26.7003648,www.ritannauhanappi.com,Commerce
FI,66.5438048,25.8455848,santas-salmon-place.com,Facility
FI,62.9437551,22.5250885,www.ylistaronhelluntaiseurakunta.fi,Facility
FI,61.4996125,23.7660056,www.tampere.fi,Facility
FI,65.0477828,25.5823956,www.kic.fi,Facility
FI,60.9872469,25.5107501,www.johannankauneushoitola.fi,Commerce
FI,60.2904354,25.0416931,www.raflaamo.fi,Facility
FI,61.676271,27.242137,www.s-kaupat.fi,Commerce
FI,60.1986284,24.9333005,barbar.fi,Facility
FI,61.2465939,25.3374281,amr-talli.net,Facility
FI,66.1845469,29.1315579,rhh.fi,Facility
FI,64.1944428,29.1934727,www.lomarengas.fi,Facility
FI,60.6090595,24.8408489,www.hyvinkaa.fi,Facility
FI,60.9814745,25.7363784,www.cafeilmondo.fi,Facility
FI,61.5768208,24.5631252,www.s-kaupat.fi,Commerce
FI,60.172982,24.9482249,www.avartti.fi,Facility
FI,60.1755251,24.9610987,millbrook.fi,Commerce
FI,60.9075309,26.6219164,www.wanhakalastaja.com,Facility
FI,61.1884229,28.7655752,www.hesburger.fi,Facility
FI,64.686497,24.5003119,hakalankoneklinikka.fi,Commerce
FI,62.5268134,30.3733299,www.pohjoiskarjalankelkkaurat.fi,Facility
FI,61.4970906,23.8892774,www.k-ruoka.fi,Commerce
FI,61.3125216,22.1357413,www.harjavalta.fi,Facility
FI,60.395309,22.2247363,www.attendo.fi,Facility
FI,62.5678455,24.1334631,susemk.fi,Unknown
FI,60.1717266,24.9323235,www.uniarts.fi,Facility
FI,60.4721325,22.2335721,www.mustijamirri.fi,Commerce
FI,60.1866767,24.9791265,www.hankosushi.fi,Facility
FI,63.5932167,23.0498765,kronobyapotek.fi,Facility
FI,60.2069409,24.9216485,www.hsy.fi,Facility
FI,60.2614028,24.8532949,www.artsimuseo.com,Facility
FI,61.5137498,27.5259199,www.mmkry.fi,Unknown
FI,61.5089537,23.016692,www.mouhijarvenhelluntaisrk.net,Facility
FI,61.2406718,25.0265917,www.evonluonto.fi,Unknown
FI,65.3604223,26.9883224,www.k-ruoka.fi,Commerce
FI,65.9437283,29.1255204,www.kuusamo.fi,Unknown
FI,60.4616235,24.8035024,www.kylakirjakauppa.fi,Commerce
FI,67.6021202,24.1710373,tunturioravat.fi,Facility
FI,62.9865561,27.7064785,vuorelantalli.webnode.fi,Facility
FI,60.8699783,26.7044596,www.subway.fi,Facility
FI,62.7090141,27.821974,www.kuopio.fi,Unknown
FI,63.7726231,24.251545,www.toholampi.fi,Facility
FI,62.2119447,27.6866293,huutokoski.fi,Unknown
FI,61.8682747,28.8690016,www.k-ruoka.fi,Commerce
FI,63.0057739,23.8026091,www.alko.fi,Commerce
FI,60.1951878,24.7664427,www.tanssikoulukokko.fi,Unknown
FI,60.867797,26.7048524,www.scandichotels.fi,Facility
FI,60.260529,24.8536347,momoandmore.fi,Facility
FI,60.4406853,22.244399,www.varsinais-suomi.fi,Facility
FI,60.4333958,22.1736566,www.vanhatammi.fi,Facility
FI,62.6567946,30.7874805,www.pohjoiskarjalankelkkaurat.fi,Unknown
FI,68.3856782,23.6425144,www.korulaakso.com,Facility
FI,60.5813537,26.1095885,kelkkatouring.fi,Unknown
FI,61.8878056,26.35376,jslumikissat.blogspot.com,Unknown
FI,60.400264,25.0969288,edu.kerava.fi,Unknown
FI,62.2609629,25.7776377,www.gigantti.fi,Commerce
FI,62.7780419,22.8856775,coastone.fi,Facility
FI,62.41209,25.9582455,www.huonekaluliikevehvilainen.fi,Commerce
FI,65.0021908,25.8691294,www.luontoon.fi,Facility
FI,60.2141615,24.9412139,hel.fi,Facility
FI,61.8742496,28.9551156,www.tokmanni.fi,Commerce
FI,61.4783205,23.5080932,www.foodcafefrida.com,Facility
FI,68.2244317,24.1217698,www.tosilappi.fi,Unknown
FI,67.6145671,24.1526554,www.lehontulet.fi,Facility
FI,61.4434609,23.834424,www.kuikkakafe.fi,Facility
FI,65.0277221,25.4610377,www.hiussalonkisolki.com,Commerce
FI,60.2610741,24.9840854,www.elysakauneus.com,Commerce
FI,60.1629681,24.8654435,palvelukartta.hel.fi,Facility
FI,62.3895172,25.6648676,www.tikkakosken-helluntaisrk.net,Facility
FI,60.3141925,24.9572696,www.forex.fi,Commerce
FI,60.4938434,22.2214137,www.power.fi,Commerce
FI,61.5140327,23.6708295,sprkontti.fi,Commerce
FI,60.2771303,24.8532153,aikataulut.reittiopas.fi,Facility
FI,60.2504641,24.0675169,www.kinovaakuna.fi,Facility
FI,67.6041262,24.1550687,rohkiravintola.fi,Commerce
FI,60.2072385,25.0430938,www.hel.fi,Facility
FI,60.127709,24.449568,sites.google.com,Facility
FI,64.1695801,25.4695245,www.haapavesi.fi,Facility
FI,61.4654146,23.8391173,toas.fi,Unknown
FI,62.6239842,29.6919621,www.joensuu.fi,Facility
FI,65.0471613,25.5751434,www.kailatec.fi,Commerce
FI,60.1649912,24.9348866,kungfukitchen.fi,Facility
FI,62.2425069,28.0862832,www.hakeracingteam.net,Unknown
FI,64.1280851,29.5111468,sote.kainuu.fi,Facility
FI,60.162945,24.9432912,www.plastikakirurgiafinest.ee,Facility
FI,60.1666872,24.9374004,barloose.com,Facility
FI,60.187905,24.8246047,avp.aalto.fi,Facility
FI,67.1661708,24.9556555,www.k-ruoka.fi,Commerce
FI,62.2425416,25.7481941,www.friendsandbrgrs.fi,Facility
FI,61.5010057,23.7562465,www.fantasiapelit.com,Commerce
FI,60.5190688,22.961844,www.onnenperantalli.fi,Facility
FI,60.2632903,24.8540834,www.riamoneytransfer.com,Commerce
FI,64.8055367,26.025929,rauhanyhdistys.fi,Facility
FI,66.5429333,25.8503572,www.snowmobilepark.com,Facility
FI,62.7881655,22.8226745,www.compass-group.fi,Facility
FI,67.8085921,24.8146019,www.levikaira.fi,Facility
FI,60.2085379,24.7440354,www.mcdonalds.fi,Facility
FI,62.7110047,29.7859051,www.kontiolahdenseurakunta.fi,Unknown
FI,64.9742859,25.5047236,conitek.fi,Facility
FI,60.1978075,24.8761702,www.jalkojesiterveydeksi.fi,Facility
FI,60.241578,24.8850685,www.s-kaupat.fi,Commerce
FI,62.8778892,24.8007998,karstula.fi,Facility
FI,62.5357644,24.2146847,susemk.fi,Unknown
FI,60.1189557,24.4321096,www.tokmanni.fi,Commerce
FI,61.996603,26.6483958,www.puulankelkkailijat.com,Unknown
FI,60.4490887,22.2921737,moipoketurku.com,Facility
FI,60.201698,25.0469554,angelfilms.com,Facility
FI,60.3836922,23.1411064,www.salonhelluntaisrk.fi,Facility
FI,60.3391431,24.3137332,www.vihti.fi,Facility
FI,60.2910805,24.9664806,www.raflaamo.fi,Facility
FI,62.8913447,27.6801717,blocco.fi,Facility
FI,61.4972892,23.7529377,etelankebab.com,Facility
FI,61.7181517,25.1249665,puukkoistenladut.nettisivu.org,Unknown
FI,65.115437,25.7321454,rengasarppa.fi,Commerce
FI,60.9829765,25.4946515,www.kotipizza.fi,Facility
FI,60.4738509,22.2237994,www.lansi1.fi,Commerce
FI,60.1935447,24.8945703,reittiopas.hsl.fi,Facility
FI,60.4308955,22.2495004,www.lounaskahvilalahtinen.fi,Facility
FI,60.270281,24.8530019,www.louhelanhuolto.fi,Facility
FI,62.983608,22.3518187,jeppobiogas.fi,Facility
FI,61.4840275,21.7121294,www.k-ruoka.fi,Commerce
FI,60.9127834,22.4060305,www.poytya.fi,Facility
FI,60.4696753,22.0166566,www.visitnaantali.com,Facility
FI,65.7374981,24.5644026,ohjaamot.fi,Facility
FI,62.6197314,29.7351934,joensuunkonekeskus.fi,Commerce
FI,60.0969868,23.525978,www.pohjanapteekki.fi,Facility
FI,61.4955763,23.7469465,vihkokauppa.com,Commerce
FI,62.0439899,24.5803931,www.kelkkailu.fi,Unknown
FI,65.8902928,25.2354963,www.eraluvat.fi,Unknown
FI,60.454472,22.2734487,www.kukkakauppatähkä.fi,Commerce
FI,60.1673926,24.9219656,wanderfeel.com,Facility
FI,60.295194,24.9711321,finland.holidayinn.com,Facility
FI,62.9587132,22.9474132,www.simpsionkullas.fi,Facility
FI,60.6276896,24.856288,www.lacerose.fi,Commerce
FI,63.2565611,22.8451064,harmanliikenne.fi,Facility
FI,63.4793511,23.008377,www.posti.fi,Facility
FI,60.6250372,26.1973532,www.lapinjarvi.fi,Facility
FI,67.596673,24.1467635,ravintolaporo.fi,Facility
FI,60.0875966,21.9795865,www.brannskar.fi,Facility
FI,62.4119738,25.9538533,peda.net,Facility
FI,60.2437318,25.178609,www.valkka.eu,Facility
FI,59.8234971,22.9683222,hotelbulevard.fi,Facility
FI,62.1870242,23.1918479,www.kelkkailu.fi,Facility
FI,64.9054812,25.5406472,www.biltema.fi,Commerce
FI,60.1806204,24.9499121,putinki.fi,Commerce
FI,60.2427806,24.8848151,vanhaistentie4.fi,Unknown
FI,60.1707426,24.9416759,www.hamhelsinki.fi,Facility
FI,60.2932291,25.0428977,www.tc-ink.fi,Commerce
FI,62.5560986,24.1048554,www.mariant.fi,Commerce
FI,60.2598516,24.853749,www.mroom.com,Commerce
FI,60.1752204,24.8017091,www.handelsbanken.fi,Commerce
FI,68.5881627,23.4534313,www.tosilappi.fi,Unknown
FI,63.5475786,23.6873388,www.neste.fi,Facility
FI,60.2380984,24.9279024,pakilanapteekki.fi,Facility
FI,62.4278189,22.1773697,kristinamedi.fi,Facility
FI,60.1888067,25.0073263,reittiopas.hsl.fi,Facility
FI,60.1863834,24.9796297,www.oluthuonehaavi.fi,Facility
FI,62.2203167,23.1748348,www.ysmk.net,Unknown
FI,63.9226123,24.9806795,liikunta.nivala.fi,Facility
FI,60.6230046,23.5208231,www.teboil.fi,Facility
FI,61.0589879,28.1900042,www.aspakoti.fi,Facility
FI,60.297639,25.3294773,www.alko.fi,Commerce
FI,62.7979747,22.8425334,www.kalustetalokalleperala.fi,Commerce
FI,60.461535,22.442476,tommintomaatti.nettisivu.org,Commerce
FI,60.5344591,22.041772,www.rakennuspalveluarma.fi,Facility
FI,60.4688687,22.0291149,www.naantali.fi,Facility
FI,60.4438326,22.3117887,itaharjungrilli.fi,Facility
FI,60.2911125,25.0445561,www.movementfysios.fi,Facility
FI,61.8695528,28.8794883,www.k-market.fi,Commerce
FI,60.1829537,25.0505501,reittiopas.hsl.fi,Facility
FI,61.5018745,26.476926,www.mantyharjunseurakunta.fi,Facility
FI,60.236598,24.8618838,www.20jalkaa.com,Commerce
FI,64.2094517,27.7537535,www.peeveebar.fi,Facility
FI,60.2364635,25.0846893,www.kontulankaarenapteekki.fi,Facility
FI,61.2545564,25.449893,www.asmkk.fi,Unknown
FI,62.2417679,25.7458087,www.mrabarber.com,Commerce
FI,66.3366714,28.3163705,posiolapland.com,Facility
FI,62.2499244,25.7633114,www.niemi.fi,Facility
FI,61.493317,23.837901,www.nysse.fi,Facility
FI,68.4274327,27.5695205,www.luontoon.fi,Facility
FI,61.4695161,21.823659,www.pyorajakonehuoltojarvelin.fi,Commerce
FI,60.2200854,24.9401407,www.lasipaja.fi,Facility
FI,61.6901445,27.2725209,mroom.com,Commerce
FI,64.1815663,25.4046209,www.haapavesi.fi,Facility
FI,66.398737,23.7245032,vaylafestival.com,Facility
FI,62.7792961,22.8147475,sjk.fi,Facility
FI,66.7933392,28.725625,loma.salla.fi,Facility
FI,60.227491,24.9135023,www.helsinginlatu.fi,Facility
FI,61.3067444,26.6865464,www.mpmk.net,Unknown
FI,60.880715,26.420426,lumikissat.wsgm.net,Unknown
FI,60.5034009,26.7659734,www.kohava18.info,Facility
FI,62.8842853,27.6303524,www.neste.fi,Facility
FI,60.3158495,24.9617779,www.forex.fi,Commerce
FI,60.4034796,25.0990097,panchovilla.fi,Facility
FI,60.1681435,24.9462929,myomy.fi,Commerce
FI,62.1001947,30.1356168,www.kitee.fi,Facility
FI,60.964091,25.6916239,www.kotikatu.fi,Facility
FI,60.2566712,24.9986056,hsl.fi,Facility
FI,60.3772357,25.2734176,www.k-ruoka.fi,Commerce
FI,61.4964522,23.75967,www.foryoutampere.fi,Commerce
FI,60.2760284,24.8080033,www.rinta-jouppi.com,Commerce
FI,61.4979311,25.6958455,www.campingsysma.fi,Facility
FI,60.165068,24.9438276,reittiopas.hsl.fi,Facility
FI,64.0693301,23.6329492,www.sautinkari.net,Facility
FI,60.1682521,24.9461809,www.valokuvataiteenmuseo.fi,Facility
FI,60.1633116,24.9519943,deutschegemeinde.fi,Facility
FI,60.8720116,26.6549246,www.s-kaupat.fi,Commerce
FI,60.553897,22.1171801,maskuservice.fi,Facility
FI,60.2249074,24.8982587,reittiopas.hsl.fi,Facility
FI,62.2420844,25.7539463,www.suomenhierojakoulut.fi,Facility
FI,60.4365085,22.3408986,www.ursuit.com,Unknown
FI,60.9585515,22.9052107,www.kannistontila.fi,Facility
FI,60.1674441,24.9329928,silo.ai,Facility
FI,60.1742411,24.8031533,hejbuddy.com,Commerce
FI,65.5636474,28.2163046,hotelliherkko.com,Facility
FI,62.1899729,25.7186433,27crags.com,Facility
FI,61.2582912,27.7102114,www.partakoskenkylat.fi,Facility
FI,61.4818248,21.7068662,www.pori.fi,Facility
FI,61.4644556,23.8557809,www.k-ruoka.fi,Commerce
FI,61.4956033,23.7593908,shivaexhale.fi,Commerce
FI,65.658175,25.069221,www.lapin-rinki-camping.com,Facility
FI,61.1466976,26.5153641,hartolanpuoti.fi,Commerce
FI,60.2027066,24.6546023,www.hyva-arki.fi,Facility
FI,61.4504577,23.8487371,www.pirha.fi,Facility
FI,64.2545898,23.9505351,www.rautio.fi,Commerce
FI,61.2490306,24.3519768,www.ronnvik.com,Facility
FI,60.9371123,25.6329623,toolpoint.fi,Commerce
FI,65.8457589,24.1464,www.tornio.fi,Facility
FI,62.6109934,25.704326,peda.net,Facility
FI,65.7367386,24.5662415,www.kotipizza.fi,Facility
FI,60.2206018,24.9405093,www.k-ruoka.fi,Facility
FI,60.191184,24.9550812,hsl.fi,Facility
FI,61.1343273,22.169612,www.kirputon.fi,Commerce
FI,60.3031572,25.0466877,www.k-ruoka.fi,Commerce
FI,61.4559913,23.7653713,www.kotilaakso.fi,Facility
FI,64.1386443,28.2760647,vuokattisport.fi,Facility
FI,60.9226881,24.647608,www.op.fi,Commerce
FI,60.4560861,22.6883449,www.op.fi,Commerce
FI,60.4009291,24.4789876,www.vihti.fi,Facility
FI,60.4544631,22.2463858,www.foli.fi,Facility
FI,60.1679346,24.9458269,www.marimekko.com,Commerce
FI,60.115087,19.9551743,www.strandbaren.eu,Facility
FI,62.2554908,25.1883207,dognpets.fi,Commerce
FI,60.8933475,26.3352627,naapantuura.fi,Commerce
FI,60.9763171,24.4768883,hamko.fi,Facility
FI,60.2422254,24.8445546,www.punavuorenrauta.fi,Commerce
FI,61.0537188,25.041193,www.helsinki.fi,Facility
FI,60.4913469,22.2563952,www.savoset.com,Facility
FI,60.9869659,25.6643262,www.mustijamirri.fi,Commerce
FI,60.4693229,22.0230356,www.palo.fi,Facility
FI,63.6154783,24.40185,www.tomoke.com,Unknown
FI,64.9024594,25.5416338,www.forenom.com,Facility
FI,60.1758921,24.9223675,corporate.elisa.fi,Facility
FI,62.5532232,24.0659833,eeva-maijankukka.ekukka.fi,Commerce
FI,62.6188784,29.7440099,www.valolux.net,Facility
FI,62.4920697,24.2152995,susemk.fi,Unknown
FI,61.259433,25.4562516,www.asmkk.fi,Unknown
FI,61.4795512,21.791752,www.crazytown.fi,Facility
FI,63.7211342,24.744551,www.sievi.fi,Facility
FI,61.8863384,29.8312497,kesalahti.blogspot.com,Facility
FI,65.4625971,29.5390268,loma-hossa.fi,Facility
FI,60.1585717,24.7358099,alinabeautysalon.fi,Commerce
FI,60.1606889,24.9292836,www.maljahelsinki.fi,Facility
FI,59.9769981,23.4632049,www.ekenasnejdensforsamling.fi,Unknown
FI,60.3047466,25.0493264,kaupunkipyorat.hsl.fi,Facility
FI,62.2308396,25.7057776,jyvas-parkki.fi,Facility
FI,60.8795114,21.6847204,laitilan.com,Facility
FI,60.1875619,24.9788997,www.yogavalo.fi,Facility
FI,62.331637,29.6324655,juomatehdas.com,Commerce
FI,64.674824,27.9576372,www.paljakka.fi,Facility
FI,62.6262418,23.8218422,susemk.fi,Facility
FI,60.873072,26.7353567,pilkepaivakodit.fi,Facility
FI,63.1113039,21.6511856,www.asko.fi,Commerce
FI,60.2871471,24.8747725,www.ovrenybacka.fi,Unknown
FI,61.4520162,23.848989,asuntohaku.poas.fi,Unknown
FI,64.1311717,28.3832461,www.kotipizza.fi,Facility
FI,67.4163906,26.5879878,budgethotelkarhu.fi,Facility
FI,61.7807078,22.7115807,lentopaikat.fi,Facility
FI,60.1658399,24.7563083,aikataulut.reittiopas.fi,Facility
FI,63.4207679,27.3303739,peda.net,Facility
FI,62.5566235,24.1111187,www.neste.fi,Unknown
FI,69.458887,29.2893215,www.luontoon.fi,Facility
FI,65.0073711,25.4640502,www.lasinfonia.fi,Facility
FI,60.1680374,24.9423205,www.erottajanapteekki.com,Facility
FI,63.823584,29.1771807,www.lomarengas.fi,Facility
FI,66.7646396,28.7616241,www.sallaiset.fi,Facility
FI,60.157209,24.7322684,bluebike.fi,Commerce
FI,63.678832,22.7067278,www.multi.fi,Facility
FI,61.0447825,22.3574779,www.k-ruoka.fi,Commerce
FI,60.2028783,24.9491069,www.hel.fi,Facility
FI,60.6264511,24.8557382,laurea.finna.fi,Facility
FI,60.1991238,24.9379351,mala.fi,Facility
FI,66.543063,25.5188444,www.rovaniemi.fi,Unknown
FI,60.6291641,24.8386912,www.hyvinkaa.fi,Facility
FI,64.1374025,28.3786152,www.vuokatti.fi,Unknown
FI,60.1606649,21.5510474,www.lsjh.fi,Facility
FI,60.9951447,25.6640637,www.k-ruoka.fi,Commerce
FI,61.166421,23.8615172,www.mielenterveysseurat.fi,Facility
FI,60.1907369,25.0226748,www.hel.fi,Facility
FI,62.6862864,31.3346146,mohko.net,Facility
FI,60.1602685,24.7389467,www.hus.fi,Facility
FI,60.2114383,25.0817621,www.eilahellgren.fi,Commerce
FI,66.046399,28.2446726,www.luontoon.fi,Facility
FI,59.8162315,22.9654677,itamerenportti.fi,Facility
FI,60.1837144,24.7946632,www.thaichinaruokaravintola.fi,Facility
FI,61.5036165,25.6821008,www.harmonikkamuseo.fi,Facility
FI,60.2919948,25.0729744,aikataulut.reittiopas.fi,Facility
FI,61.4990387,23.7619167,www.tampere.fi,Facility
FI,60.680671,25.833657,ampu.4h.fi,Facility
FI,62.6187515,29.74815,www.euromaster.fi,Commerce
FI,63.8129035,26.1020502,www2.pyhajarvi.fi,Unknown
FI,60.5392284,22.3487204,edu.turku.fi,Facility
FI,62.2384046,24.7194734,www.elekmerk.fi,Facility
FI,62.6185326,29.7430479,www.kuurnankulma.fi,Facility
FI,60.1687483,24.9454041,lindroos.fi,Commerce
FI,60.4715272,26.9241008,kaakau.fi,Facility
FI,60.1684787,24.9286181,unika.fi,Commerce
FI,60.9969604,24.4686722,keskusapteekki.com,Facility
FI,60.198862,24.8779423,www.huoltoliikeberghall.fi,Commerce
FI,62.7776482,24.8113867,www.kouheronkelkkailijat.fi,Unknown
FI,60.164513,24.9434322,hippolyte.fi,Facility
FI,64.9851948,25.5097221,www.mekonomenhiironen.fi,Commerce
FI,60.4773175,25.0746345,www.k-market.fi,Commerce
FI,61.8772414,28.8273212,www.s-kaupat.fi,Commerce
FI,62.5933473,23.6100884,www.abcasemat.fi,Facility
FI,60.8261931,23.5785421,autokeidas.fi,Facility
FI,60.1717743,24.9058508,www.hamhelsinki.fi,Facility
FI,63.5648492,29.1128838,www.nurmes.fi,Facility
FI,60.1463207,24.5788543,reittiopas.hsl.fi,Facility
FI,61.2134987,28.8073609,ramo.fi,Unknown
FI,60.3846716,23.1286377,salo.fi,Facility
FI,60.1712168,24.9386973,www.fotocafe.fi,Unknown
FI,62.8922087,24.8545265,www.kouheronkelkkailijat.fi,Unknown
FI,60.6818008,21.9906996,www.mynaauto.fi,Commerce
FI,60.8680692,26.7044524,www.terveystalo.com,Facility
FI,60.187024,24.8109947,app.k-lataus.fi,Facility
FI,60.3649186,25.0687547,aikataulut.reittiopas.fi,Facility
FI,60.2371621,24.8925981,www.teejakahvikauppa.fi,Commerce
FI,63.0774173,21.6853864,www.waasasnowmobile.fi,Facility
FI,65.7340185,24.5706432,www.keminhelluntaiseurakunta.fi,Facility
FI,65.0105274,25.4650572,oikeus.fi,Facility
FI,60.2785723,25.1100708,fysioterapiakroppa.com,Facility
FI,60.9825364,25.6668384,kinoiiris.com,Facility
FI,60.1559159,24.6433277,reittiopas.hsl.fi,Facility
FI,60.2870924,24.9578553,aikataulut.reittiopas.fi,Facility
FI,62.2586019,25.780145,www.kalusteojala.fi,Commerce
FI,60.9955841,24.4630993,hotelliemilia.fi,Facility
FI,61.0778046,24.9430161,myllynkuppikakku.fi,Facility
FI,61.491635,23.789977,www.nysse.fi,Facility
FI,65.8430896,24.1441499,www.rajallakauppakeskus.fi,Commerce
FI,60.0186791,22.5088746,www.rundamunken.fi,Facility
FI,61.4892981,21.7919739,www.porinteatteri.fi,Unknown
FI,60.2668957,24.8058557,aikataulut.reittiopas.fi,Facility
FI,60.2139807,25.1342325,hsl.fi,Facility
FI,60.9663813,25.5814703,seo.fi,Facility
FI,60.2708908,25.1583188,www.stortrask.con,Facility
FI,60.6203186,24.8307201,www.hyvinkaa.fi,Facility
FI,61.4993047,23.7695512,www.bakerycafe.fi,Facility
FI,60.3672658,25.2399531,suf.nsu.fi,Facility
FI,60.4785896,22.1590624,www.evidensia.fi,Facility
FI,60.3929441,23.0914633,www.puuilo.fi,Commerce
FI,60.2389354,25.0992922,www.asuntosaatio.fi,Unknown
FI,60.7901037,28.0120449,www.ylamaanjalokivimuseo.fi,Facility
FI,60.1820153,24.9515393,www.plusterveys.fi,Facility
FI,60.5486375,21.4727194,jammi.net,Facility
FI,67.2676275,25.5313114,www.kieringinloma.fi,Facility
FI,60.127843,24.4500173,www.kirkkonummi.fi,Facility
FI,60.8000609,21.4115711,kellojakultaonline.fi,Commerce
FI,63.5598898,27.1852774,www.iisalmi.fi,Facility
FI,65.9428071,26.5427962,www.ranua.fi,Facility
FI,60.3058045,26.0814876,www.kabbolemarina.fi,Facility
FI,61.4945335,21.8000722,www.suomalainen.com,Commerce
FI,63.558463,24.6982702,kuturanta.fi,Facility
FI,59.7810621,21.3707123,www.uto.fi,Facility
FI,60.4841852,25.0880085,www.jarvenpaa.fi,Facility
FI,60.9678347,25.6193503,www.poliisi.fi,Facility
FI,60.4490877,22.2647504,echo-dek.com,Commerce
FI,62.6132308,29.5430695,heinosenleipomo.fi,Facility
FI,62.6273876,29.7746526,www.asko.fi,Commerce
FI,67.7103183,24.1613008,peurakaltio.fi,Facility
FI,62.1226535,30.1508552,www.pohjoiskarjalankelkkaurat.fi,Unknown
FI,60.315426,25.071227,aikataulut.reittiopas.fi,Facility
FI,60.1867107,24.9674242,www.neuroflux.fi,Facility
FI,61.6443041,27.1482543,mmkry.fi,Unknown
FI,62.6593139,29.6611869,opensnowmap.org,Unknown
FI,63.6760124,22.7042677,bros.fi,Commerce
FI,60.1728419,24.9395217,www.helsinginpyorahuolto.fi,Commerce
FI,60.9846422,24.4162096,www.pizzahut.fi,Facility
FI,61.689187,27.27516,www.apteekkistella.fi,Facility
FI,62.3718403,25.6087482,www.lumikiitajat.fi,Facility
FI,66.1968364,24.0797619,www.tornio.fi,Unknown
FI,67.1095969,27.5118116,pelkosenniemi.fi,Facility
FI,62.464383,22.9267297,www.jamoke.fi,Unknown
FI,60.8707974,26.436064,lumikissat.wsgm.net,Facility
FI,60.5181433,27.1618764,www.haminalng.fi,Facility
FI,60.1680264,24.9397352,www.kosmos.fi,Facility
FI,60.4512787,22.263307,www.aimopark.fi,Unknown
FI,60.2364369,25.0421579,reittiopas.hsl.fi,Facility
FI,67.9548667,23.6831417,www.seomaki.fi,Facility
FI,61.2276011,26.0563899,www.heinolanilveskelkat.com,Facility
FI,63.6806679,25.9682704,www.inmetareena.fi,Facility
FI,60.1707276,24.9417552,www.hamhelsinki.fi,Facility
FI,60.2397965,25.0026616,aikataulut.reittiopas.fi,Facility
FI,60.4438385,22.2912471,www.turku.fi,Facility
FI,60.4746552,22.0337898,www.naantalispa.fi,Facility
FI,60.5405293,22.220582,www.bulleriina.fi,Commerce
FI,65.9527899,26.9317254,www.ranua.fi,Unknown
FI,60.5150604,21.7521586,www.siementarha.fi,Commerce
FI,62.6277215,29.7512343,www.katsastuskovalainen.fi,Unknown
FI,62.7527144,22.6981664,ilmajoki.fi,Facility
FI,63.8370095,23.1329209,www.saunanhenki.fi,Commerce
FI,62.9719657,23.0297733,jysk.fi,Commerce
FI,62.2747012,25.8094215,www.akrad.ru,Facility
FI,64.6857768,24.5639264,www.raahenmotocafe.fi,Facility
FI,60.1827897,24.8256335,www.aalto.fi,Facility
FI,60.2568092,24.8722471,aikataulut.reittiopas.fi,Facility
FI,64.1276459,29.515636,sote.kainuu.fi,Facility
FI,61.4972745,23.7598695,www.savefile.fi,Facility
FI,62.2265197,30.6914909,www.pohjoiskarjalankelkkaurat.fi,Unknown
FI,61.0004948,24.4771938,www.mediatavast.fi,Facility
FI,60.4526782,26.2073431,www.mustijamirri.fi,Commerce
FI,60.3015551,24.8533462,aikataulut.reittiopas.fi,Facility
FI,60.2187209,24.9227938,reittiopas.hsl.fi,Facility
FI,60.5004307,22.2929451,www.hrk.fi,Facility
FI,65.0324123,25.429611,www.terwarahasto.fi,Facility
FI,60.1928112,24.8764932,www.hel.fi,Facility
FI,60.1644101,24.9450677,www.voimalaitos.fi,Facility
FI,62.4145154,30.6463284,www.pohjoiskarjalankelkkaurat.fi,Facility
FI,60.9741223,25.4804159,www.phpela.fi,Facility
FI,61.4994485,23.7875676,www.raflaamo.fi,Facility
FI,60.6897524,26.7953963,www.barkki.fi,Facility
FI,66.6542731,23.872652,www.pellonseurakunta.fi,Facility
FI,61.1884096,28.7652925,www.silmaasema.fi,Commerce
FI,66.0852303,24.7714972,www.tervakuksa.fi,Facility
FI,60.4557226,22.6898522,www.asemaseurakunta.one,Facility
FI,60.1975597,24.9000614,www.feltbay.fi,Facility
FI,60.2080735,24.6689473,reittiopas.hsl.fi,Facility
FI,67.6043131,24.1686609,www.yllaslodge.com,Facility
FI,60.4518553,22.2816003,afroditetaverna.fi,Facility
FI,60.4389192,22.2381751,www.turku.fi,Facility
FI,67.0220765,27.2512887,experiencepyha.fi,Facility
FI,60.9850683,24.491014,www.sporttimekka.fi,Commerce
FI,60.3694782,22.2409385,www.brinkhall.fi,Unknown
FI,60.6104432,22.3016673,www.vahdonvpk.net,Facility
FI,61.0613277,28.2172765,ekko.fi,Facility
FI,60.4794577,26.8671549,kaakau.fi,Facility
FI,60.2102811,25.0887255,www.st1.fi,Commerce
FI,60.3451647,25.0824764,aikataulut.reittiopas.fi,Facility
FI,62.8977674,27.6801073,www.upmmetsa.fi,Facility
FI,60.3157098,24.8503528,kekihuolto.fi,Facility
FI,62.8646939,27.6125516,www.hesburger.fi,Facility
FI,69.2008549,21.0145229,www.luontoon.fi,Facility
FI,60.4493995,22.2525535,www.pizzerianapoli.com,Facility
FI,60.1742447,24.9528392,zensushi.fi,Facility
FI,62.0157088,25.5595043,www.k-ruoka.fi,Commerce
FI,60.1275011,23.541609,onoma.fi,Facility
FI,60.4016822,25.6886235,www.tokmanni.fi,Commerce
FI,60.1785999,24.9496223,www.latorre.fi,Facility
FI,60.1663425,24.9648463,www.fincalasventanas.com,Facility
FI,60.1581911,24.9213831,mountkailash.fi,Facility
FI,60.5611894,27.0454183,www.s-kaupat.fi,Commerce
FI,60.4470508,22.2563905,www.migrationinstitute.fi,Facility
FI,60.4558505,26.226122,www.loviisansahko.fi,Commerce
FI,61.4979467,23.7731534,www.hellajahuonedeli.fi,Facility
FI,60.176107,24.769667,hsl.fi,Facility
FI,62.3326852,27.8291476,www.neste.fi,Facility
FI,60.4584774,26.9510992,marinacafelaituri.fi,Facility
FI,60.2591152,24.8295636,pubkarry.fi,Facility
FI,60.5282554,22.0416511,www.solalehto.fi,Facility
FI,61.2664485,27.1509944,www.mpmk.net,Unknown
FI,60.1717162,24.9478573,www.kierratyskeskus.fi,Commerce
FI,67.1550282,26.9143826,www.kontiki.ch,Commerce
FI,60.2820499,24.8643512,aikataulut.reittiopas.fi,Facility
FI,62.5512449,24.0673732,www.ahtarinliikennekoulu.fi,Facility
FI,60.2463878,24.8669661,www.rajatieto.fi,Facility
FI,60.6229018,26.1992189,www.op.fi,Commerce
FI,64.2827363,23.959027,www.kalajoenteollisuuseristys.fi,Unknown
FI,60.2057143,24.8779276,www.hemingways.fi,Facility
FI,61.493686,23.755958,www.nysse.fi,Facility
FI,62.2515877,25.1930344,www.abcasemat.fi,Facility
FI,60.9987736,24.4650138,www.hameenlinna.fi,Facility
FI,60.1962738,24.9471188,www.gehealthcare.fi,Facility
FI,61.5995045,27.6329947,mmkry.fi,Unknown
FI,62.2454155,25.7461649,www.janlex.fi,Facility
FI,60.2501711,25.0174125,www.hel.fi,Facility
FI,61.4542091,23.8444942,ipanala.fi,Facility
FI,60.162051,24.720332,gogoexpress.fi,Facility
FI,62.6292758,29.7685639,www.liikuntakeskusenergy.fi,Facility
FI,61.9845211,24.0677192,www.k-ruoka.fi,Commerce
FI,60.210127,24.6600414,kuninkaantie.espoo.fi,Facility
FI,60.9835145,25.6582584,www.lahdenkauppahalli.fi,Commerce
FI,68.4200704,27.4274714,www.tunturihotelli.fi,Facility
FI,62.6048327,23.743067,www.mainosmaa.fi,Facility
FI,60.1584832,24.7048629,www.wotkins.fi,Commerce
FI,62.9678617,23.0170595,www.tjaccounting.fi,Facility
FI,60.2372602,24.8931417,www.life.fi,Commerce
FI,60.978639,27.8929858,www.kelkkakerho.fi,Unknown
FI,60.2521776,25.0110119,www.terveystalo.com,Facility
FI,62.6864395,21.98226,www.jurvanapteekki.fi,Facility
FI,60.4551735,25.1160846,www.puuilo.fi,Commerce
FI,68.3932686,23.8975746,www.tosilappi.fi,Unknown
FI,63.0934805,21.6768105,kirjasto.vaasa.fi,Facility
FI,61.2395303,28.8898988,imatrahostel.fi,Facility
FI,61.4619031,23.5134026,www.attendo.fi,Facility
FI,67.6025932,24.1426782,shop.destinationlapland.com,Facility
FI,60.2121398,25.0825678,www.ajanpesu.com,Commerce
FI,63.6122103,24.3063404,lylynpisara.fi,Facility
FI,60.4533666,22.2655676,www.soitinlaine.fi,Commerce
FI,60.1108521,19.940701,www.ami.ax,Facility
FI,60.263919,24.871641,kaupunkipyorat.hsl.fi,Facility
FI,63.1129131,21.6802375,www.gh-shoppen.fi,Commerce
FI,62.4086953,28.4058649,www.heinavedenmk.net,Unknown
FI,60.9091834,26.760863,www.valkealankylat.fi,Facility
FI,60.7487594,26.8425234,www2.liikennevirasto.fi,Facility
FI,60.2016882,24.8947834,edu.hel.fi,Unknown
FI,61.1219904,21.5277103,www.paroalhonapteekki.fi,Facility
FI,61.6584073,23.182425,www.mustijamirri.fi,Commerce
FI,61.4524862,24.1089103,www.k-market.fi,Commerce
FI,60.3158327,24.9938493,aikataulut.reittiopas.fi,Facility
FI,66.7738367,23.963682,www.alko.fi,Commerce
FI,59.9209815,22.4073911,kasnas.com,Facility
FI,60.2591683,25.062788,www.arkadiahotel.fi,Facility
FI,65.0686097,25.6513542,asemat.neste.fi,Facility
FI,60.457508,22.2335554,www.s-kaupat.fi,Commerce
FI,60.4507796,22.2618719,www.quandoo.fi,Facility
FI,60.2461178,24.0545234,www.luvn.fi,Facility
FI,60.2102486,24.6588611,www.foreverclub.fi,Facility
FI,61.6989912,27.4677794,mmkry.fi,Unknown
FI,64.850579,25.4537138,www.liminka.fi,Facility
FI,63.1047695,21.6104447,www.vaasa.fi,Facility
FI,62.7901252,22.8419441,www.kuulopiste.fi,Commerce
FI,60.1613748,24.7389705,www.elisa.fi,Commerce
FI,61.107035,25.9392237,www.versowood.fi,Unknown
FI,60.9830834,25.6585359,winecafeolavi.com,Facility
FI,60.2096224,25.0543806,www.kultafeeniks.com,Facility
FI,60.4060549,25.1371927,www.paasikivennuorisokyla.fi,Unknown
FI,62.2425038,25.7520742,www.scandichotels.fi,Facility
FI,60.3022055,22.2916969,www.pargas.fi,Facility
FI,60.3236882,24.3141382,padelvihti.fi,Facility
FI,60.2043785,24.7074057,www.espoo.fi,Facility
FI,60.4534911,22.2554748,www.hieronta-akatemia.com,Commerce
FI,60.4494983,22.4063691,www.ihanapaiva.fi,Commerce
FI,61.6432279,27.0901528,mmkry.fi,Unknown
FI,64.4044985,27.8388941,www.nestepaltamo.fi,Facility
FI,63.9285344,24.9664732,www.halpahalli.fi,Commerce
FI,60.1799441,24.9856334,nuorten.hel.fi,Facility
FI,60.1643598,24.9476071,www.lillaroberts.com,Facility
FI,66.1090047,28.1782457,www.posionhuoltsikka.fi,Facility
FI,60.1705904,24.9360162,biorex.fi,Facility
FI,60.1671522,24.9354237,www.timetobeauty.fi,Commerce
FI,60.178732,24.923071,www.relove.fi,Facility
FI,60.8942332,26.9107467,www.abcasemat.fi,Facility
FI,60.2447875,24.0628138,www.lohjanliikuntakeskus.fi,Facility
FI,65.0452244,25.5278599,www.tyokalutori.fi,Commerce
FI,61.2737686,26.1244258,www.heinolanilveskelkat.com,Unknown
FI,60.2449061,25.0462598,www.helppokatsastus.fi,Facility
FI,66.6132043,24.0619529,www.travelpello.fi,Unknown
FI,61.4744587,23.871024,www.tokmanni.fi,Commerce
FI,60.1694239,24.9382182,www.gigantti.fi,Commerce
FI,60.8997384,27.0832372,www.pkmk.com,Unknown
FI,65.0935934,29.1009246,www.luontoon.fi,Facility
FI,60.9828577,25.4934558,asemat.neste.fi,Facility
FI,60.8682154,26.7108908,www.digitaalipaino.fi,Commerce
FI,60.3718077,22.2913036,www.harjattula.fi,Facility
FI,62.6033529,25.7279259,www.koskenhelmi.fi,Facility
FI,60.8238243,21.4071838,uusikaupunki.fi,Facility
FI,60.2031948,24.9247766,vr.fi,Facility
FI,60.2536093,24.7748179,reittiopas.hsl.fi,Facility
FI,63.4815218,29.043624,www.pohjoiskarjalankelkkaurat.fi,Facility
FI,60.2406935,24.74052,www.alko.fi,Commerce
FI,60.4433108,22.376708,www.verkanappulat.fi,Facility
FI,62.8959732,27.6790275,www.parturikampaamohelli.com,Commerce
FI,61.4532303,21.8369651,www.k-ruoka.fi,Commerce
FI,61.8668387,28.8969001,ravintolavilma.fi,Facility
FI,60.3631654,24.1683227,www.kahvila-ravintola-hiidenpirtti.com,Facility
FI,61.4883453,23.8534172,toas.fi,Unknown
FI,61.4433443,23.8565372,toas.fi,Unknown
FI,60.1968879,24.9678851,www.hel.fi,Facility
FI,62.8960243,27.7137839,capproacademy.fi,Facility
FI,68.5060807,26.6822027,www.luontoon.fi,Facility
FI,60.2899502,24.8863495,www.pks4h.fi,Unknown
FI,61.096891,24.8906728,www.kapakanmaki.fi,Facility
FI,65.8208484,24.526426,kallinhiihtokeskus.fi,Facility
FI,61.4983277,23.7666216,selvipizzeria.fi,Facility
FI,60.9855191,25.6628416,pns.fi,Commerce
FI,61.6764398,23.5417309,www.mutalanhelmi.fi,Facility
FI,60.3231131,25.0628004,aikataulut.reittiopas.fi,Facility
FI,66.012069,29.1183179,www.kuusamo.fi,Facility
FI,62.3125105,27.838266,rauhanyhdistys.fi,Facility
FI,63.3904205,22.6829832,www.elisanet.fi,Facility
FI,60.4942161,25.5366058,peda.net,Facility
FI,60.3353609,24.3215408,www.taloasema.fi,Facility
FI,60.1897846,24.9524033,nostoautomaatti.fi,Commerce
FI,60.2042876,24.6584774,www.katsastuskontti.fi,Facility
FI,60.4679011,22.0205122,kaivokatu13.com,Facility
FI,60.7174012,22.6007631,www.poytya.fi,Facility
FI,61.4984349,23.7344247,www.tredu.fi,Facility
FI,62.7151187,29.8562908,www.abcasemat.fi,Facility
FI,61.2388098,23.0076119,www.vammalanmoottorikelkkailijat.com,Unknown
FI,60.4854294,22.2439066,www.ekmaninkrouvi.fi,Facility
FI,60.1467085,24.890861,uimaan.fi,Facility
FI,60.1601381,24.8815781,www.alko.fi,Commerce
FI,61.4211738,26.4324081,www.neste.fi,Facility
FI,61.5011335,23.750252,rajataide.fi,Facility
FI,61.0715902,23.5790205,www.k-rauta.fi,Commerce
FI,62.8918951,27.6852671,kaupunkipyorat.kuopio.fi,Facility
FI,60.2924263,24.7988561,www.artemishelsinki.com,Facility
FI,60.4356286,22.2435333,www.wartsila.com,Unknown
FI,62.2427268,25.7480148,www.caffitella.fi,Facility
FI,63.2516591,22.8449724,www.alaharmansahko.fi,Commerce
FI,60.4159248,22.5980964,www.koirahotellidreamdogs.fi,Facility
FI,60.2705328,24.4429864,www.kirkkonummenseurakunnat.fi,Unknown
FI,66.1163819,28.1487309,asemat.neste.fi,Facility
FI,60.1725248,24.7275904,www.roadhouse.fi,Facility
FI,60.2351674,24.8578496,www.stark-suomi.fi,Commerce
FI,68.505984,26.6804261,www.luontoon.fi,Facility
FI,60.7999772,21.4072297,www.uudenkaupunginsanomat.fi,Facility
FI,60.4669921,26.9434996,kaakau.fi,Facility
FI,63.2772834,30.0848833,www.pohjoiskarjalankelkkaurat.fi,Unknown
FI,60.3394541,24.3137586,www.vihti.fi,Facility
FI,61.2542571,26.081747,www.heinolanilveskelkat.com,Unknown
FI,61.498719,23.7565345,pelaamo.fi,Facility
FI,62.5093162,29.8144299,www.niittyranta.com,Facility
FI,61.7003992,27.3406573,mmkry.fi,Unknown
FI,61.554183,29.5040408,www.tokmanni.fi,Commerce
FI,60.3932094,25.1440033,www.kerava.fi,Facility
FI,66.5122262,25.6682417,www.wanhamestari.fi,Facility
FI,63.1275592,25.1216721,lentopaikat.fi,Facility
FI,60.4858256,22.237518,www.foli.fi,Facility
FI,62.6028526,29.7654973,www.joensuunpyorahuolto.com,Commerce
FI,60.1967865,24.8857837,restaurants.subway.com,Facility
FI,62.6186634,29.7383648,autoveijarit.fi,Commerce
FI,60.1605496,24.9467015,www.kaarnaliving.fi,Commerce
FI,62.5999469,29.7607054,www.yliopistonapteekki.fi,Facility
FI,62.8913175,27.6840235,www.kuopionseurakunnat.fi,Facility
FI,60.2324012,25.0883871,reittiopas.hsl.fi,Facility
FI,60.2518113,24.8585682,www.k-market.fi,Commerce
FI,60.6373549,24.8677792,www.hyvinkaa.fi,Facility
FI,60.372053,26.0403716,tjcatering.putteri.fi,Facility
FI,61.5025724,23.7662888,www.tampere.fi,Facility
FI,62.3698798,25.8504415,www.lumikiitajat.fi,Facility
FI,62.7205817,24.8277367,www.kouheronkelkkailijat.fi,Unknown
FI,60.2094613,25.0667493,smashtennis.sporttisaitti.com,Facility
FI,60.8692289,26.7285652,lounaskulma.fi,Facility
FI,68.3449626,23.3991982,www.tosilappi.fi,Unknown
FI,60.0765451,23.889131,www.inga.fi,Facility
FI,60.2265845,24.0021946,touhula.fi,Facility
FI,60.2121397,25.0802857,www.stoa.fi,Facility
FI,60.867624,26.706606,www.puhelinpalvelut.fi,Facility
FI,60.1674885,24.932962,www.partnersatnoste.fi,Facility
FI,60.2184022,24.8129211,www.kaivokukka.fi,Commerce
FI,67.4157355,26.5914124,www.s-kaupat.fi,Commerce
FI,60.1579775,24.933843,basbas.fi,Facility
FI,62.4257145,22.1795603,www.poppankki.fi,Commerce
FI,62.259757,25.6990766,www.scandichotels.fi,Facility
FI,62.8936358,27.6771721,www.ilovekuopio.fi,Facility
FI,62.2409498,23.7797606,www.alko.fi,Commerce
FI,61.1839835,22.6928522,huittistenjaahalli.fi,Facility
FI,60.2896282,25.0349651,www.viviennebeauty.com,Commerce
FI,60.4569082,22.2575901,www.logomo.fi,Unknown
FI,61.2645267,27.8412054,www.taipalsaarenmoottorikelkkailijat.fi,Unknown
FI,61.4986222,23.7706591,www.alandsbanken.fi,Commerce
FI,60.1948329,25.028583,www.gurkha.fi,Facility
FI,60.1629601,24.9311448,www.hamhelsinki.fi,Facility
FI,60.4742039,25.0922525,www.jarvenpaa.fi,Facility
FI,60.4877389,22.2084021,www.kvik.fi,Commerce
FI,63.1594254,23.8259973,www.k-ruoka.fi,Commerce
FI,60.4647807,22.2707671,uunipizzeria.fi,Facility
FI,60.2826312,24.821644,www.americanservice.fi,Commerce
FI,63.5097901,30.1860786,www.pohjoiskarjalankelkkaurat.fi,Facility
FI,62.8678512,27.6264896,www.autoklinikka.fi,Commerce
FI,61.1304442,22.1378088,www.euranasuntopalvelu.fi,Facility
FI,63.0539499,25.8927727,viitasaari.fi,Facility
FI,61.1958659,25.1088953,www.hami.fi,Facility
FI,60.4485315,22.2923822,www.foli.fi,Facility
FI,64.4899676,28.1789418,www.ristijarvenpirtti.fi,Facility
FI,60.1406225,24.985542,www.suomenlinna.fi,Facility
FI,60.1905909,24.9149837,iltrio.fi,Facility
FI,66.5420297,25.8410066,www.santaclausholidayvillage.fi,Facility
FI,66.5185459,25.7536982,www.k-ruoka.fi,Commerce
FI,60.168744,24.95177,www.cinemamondo.fi,Facility
FI,63.2673878,22.6701525,www.epmuisto.fi,Facility
FI,62.55116,24.1080463,www.etappi.com,Facility
FI,65.0584233,25.4776811,www.tokmanni.fi,Commerce
FI,61.4834932,21.8173781,www.puuilo.fi,Commerce
FI,60.1582285,24.9478494,www.pieninoitapuoti.fi,Commerce
FI,65.009002,25.5901303,www.attendo.fi,Facility
FI,60.5222586,22.015355,www.maskunratsutila.net,Facility
FI,60.1576583,24.9347707,ilbucatino.fi,Facility
FI,60.2824806,24.8217832,www.rocktechnology.sandvik,Facility
FI,65.0127904,25.4767267,rednet.punainenristi.fi,Facility
FI,62.2493816,25.7493809,www.eversheds-sutherland.com,Facility
FI,62.6284275,29.7721626,www.autoaatamila.fi,Commerce
FI,61.4678409,23.5127368,www.tokmanni.fi,Commerce
FI,62.232745,26.132965,www.lumikiitajat.fi,Unknown
FI,60.2410992,25.0211661,www.neste.fi,Facility
FI,61.9445603,24.1191954,www.neste.fi,Facility
FI,60.9578624,24.4509701,www.neste.fi,Facility
FI,62.8004465,22.8444443,www.wurth.fi,Commerce
FI,60.7370827,24.7738445,www.huippumyynti.fi,Facility
FI,63.7514785,25.3134586,www.haapajarvi.fi,Facility
FI,62.2407126,25.7503131,www.hotellimilton.com,Facility
FI,60.2435501,25.0882734,reittiopas.hsl.fi,Facility
FI,60.3916843,25.1462678,reittiopas.hsl.fi,Facility
FI,60.273855,24.8080716,www.tts.fi,Facility
FI,63.097753,21.6170091,eparking.fi,Facility
FI,62.773246,23.8759775,susemk.fi,Unknown
FI,60.3849958,23.1148554,www.ppauto.fi,Commerce
FI,61.5092864,21.8045194,porintehotuonti.com,Commerce
FI,62.7908626,22.8388792,www.boutiques.fi,Commerce
FI,60.8759955,26.7774698,www.lounaskahvilateho.net,Facility
FI,60.1771229,24.9347785,hakunamatata-sup.fi,Facility
FI,63.8360232,23.1325614,fi.espressohouse.com,Facility
FI,60.9983066,24.470211,nordicsmokery.fi,Facility
FI,60.207097,25.079155,hsl.fi,Unknown
FI,60.425549,25.1043391,reittiopas.hsl.fi,Facility
FI,65.0815426,25.4574961,www.ouka.fi,Facility
FI,62.1360563,22.560889,willikarvia.fi,Facility
FI,60.8676725,26.7080465,www.petzoo.fi,Commerce
FI,60.400708,25.1200997,oppilaitokset.kerava.fi,Facility
FI,60.3791181,25.0261686,www.pilkepaivakodit.fi,Facility
FI,60.5539683,22.1170677,www.powerfade.fi,Facility
FI,62.7603222,24.8264907,www.kouheronkelkkailijat.fi,Unknown
FI,61.4913511,23.7480047,koulukadunminigolf.fi,Facility
FI,62.5544121,23.7163089,susemk.fi,Unknown
FI,60.5967697,22.0805409,www.s-kaupat.fi,Commerce
FI,68.8986937,27.0850856,wildernesshotels.fi,Facility
FI,60.4672123,22.0242243,aurinkoinen.fi,Facility
FI,60.2434977,24.8589281,gurigajebena.fi,Unknown
FI,68.3952633,23.667589,nationalparks.fi,Facility
FI,61.4180266,24.1469705,www.kaivannonkeidas.fi,Facility
FI,60.4532612,22.2690771,johannanklinikka.fi,Commerce
FI,60.1783788,24.9288327,www.tikobynina.com,Commerce
FI,62.4346806,22.1863047,www.svh.fi,Commerce
FI,60.4201007,26.1737563,www.booking.com,Facility
FI,65.1714648,25.3594416,pohde.fi,Facility
FI,68.6661267,27.5543144,rauhanyhdistys.fi,Facility
FI,60.6246503,21.9066721,mietoistenvpk.fi,Facility
FI,62.11783,25.146748,www.kelkkailijat.net,Unknown
FI,61.5171087,23.6614838,www.lmautopesu.fi,Facility
FI,60.2900976,25.0382674,www.parturikampaamoneilikka.fi,Commerce
FI,64.9025289,25.5416849,www.lexuleaborg.fi,Facility
FI,60.2227707,24.8167469,villalilla.fi,Facility
FI,60.5015695,22.4818611,www.kyppi.fi,Facility
FI,63.8391564,23.1379208,www.s-kaupat.fi,Commerce
FI,59.9738444,23.4336306,www.ekenasnejdensforsamling.fi,Facility
FI,60.3359855,25.1244613,aikataulut.reittiopas.fi,Facility
FI,60.1715604,24.947265,www.happywaffle.fi,Facility
FI,61.4507519,23.8509279,linkosuo.fi,Facility
FI,61.4469299,23.8581032,www.kiipula.fi,Facility
FI,59.9001386,23.112927,nuorten.hel.fi,Facility
FI,61.3820092,29.1735149,www.rautjarvenmoottorikelkkailijat.com,Unknown
FI,61.4530438,23.8464976,ravintoladeluxe.fi,Facility
FI,60.1912212,24.9021501,www.hamhelsinki.fi,Facility
FI,63.9232708,24.9805683,liikunta.nivala.fi,Facility
FI,66.6723971,23.950818,www.travelpello.fi,Unknown
FI,60.4956466,22.3144567,www.rikosseuraamus.fi,Facility
FI,66.4910076,25.6889856,www.kespro.com,Commerce
FI,64.1281396,29.5211617,www.cafetorilla.fi,Facility
FI,60.2053946,24.9226604,gvcravintolat.fi,Facility
FI,62.8914766,27.6902314,www.trattoriasorrento.net,Facility
FI,68.2195739,23.9440537,nationalparks.fi,Facility
FI,60.4727404,22.0658878,rengasw.fi,Commerce
FI,60.2369906,24.8910398,www.instru.fi,Commerce
FI,63.6748648,22.7010863,www.kappahl.com,Commerce
FI,60.2364302,25.082019,reittiopas.hsl.fi,Facility
FI,65.3612042,26.9953579,mtavaratalo.com,Commerce
FI,60.4832636,21.8702448,rantamakasiini.fi,Facility
FI,60.2080397,25.0747171,www.annansilmat-aitta.fi,Commerce
FI,60.2846932,24.9658558,airporthotelpilot.fi,Facility
FI,60.1825926,24.9607468,dvv.fi,Facility
FI,60.9934401,24.4537673,www.kerhoravintolaseiska.fi,Facility
FI,61.3139045,22.1469857,www.k-ruoka.fi,Commerce
FI,61.6975127,27.2872216,www.lidl.fi,Facility
FI,60.1614413,24.7380476,www.kappahl.com,Commerce
FI,61.6668494,27.3380855,tornimaki.fi,Facility
FI,60.290087,24.9693476,www.cryo21.fi,Commerce
FI,60.9897002,24.4164735,freebike.rolan.fi,Unknown
FI,62.577045,22.693178,www.jamoke.fi,Unknown
FI,63.9040068,25.0271126,www.kurunpuhto.fi,Unknown
FI,62.7045104,23.799166,www.etappi.com,Facility
FI,60.1659052,24.9335984,www.studiodiiva.com,Commerce
FI,60.1873193,24.8680481,kemlu.go.id,Facility
FI,62.2309192,23.0522772,www.kelkkailu.fi,Facility
FI,60.1959673,24.9592328,oioi.fi,Facility
FI,60.3030707,24.8473118,aikataulut.reittiopas.fi,Facility
FI,60.1907569,24.9469914,cycland.fi,Commerce
FI,63.0665033,28.3332072,www.poliisi.fi,Facility
FI,60.2392131,25.0700183,www.hel.fi,Facility
FI,61.671825,23.166675,hallapirtti.fi,Facility
FI,69.0646898,20.566225,www.luontoon.fi,Facility
FI,60.1858078,24.9615278,www.hamhelsinki.fi,Facility
FI,60.1972063,24.9481487,sosped.fi,Facility
FI,61.4853626,21.7899549,www.k-ruoka.fi,Commerce
FI,60.8791735,22.4098587,www.abcasemat.fi,Facility
FI,60.24957,24.0652394,www.kela.fi,Facility
FI,61.5014573,23.8007345,www.realbeauty.fi,Commerce
FI,60.1556364,24.6690894,reittiopas.hsl.fi,Facility
FI,61.590518,25.0543829,www.kuhmoistenmoottorikelkkailijat.com,Unknown
FI,60.4863515,26.516125,www.kohava18.info,Facility
FI,60.5024096,26.71485,www.kohava18.info,Facility
FI,66.5440354,25.8474223,santaclausvillage.info,Commerce
FI,60.1033134,19.9396709,www.central-apoteket.ax,Facility
FI,60.4569807,22.2863835,humanitas.fi,Facility
FI,61.7568349,22.1231759,www.metallityouusitalo.fi,Facility
FI,60.6302633,24.8609498,www.hyvinkaa.fi,Facility
FI,60.6288883,24.8566091,www.fotoman.fi,Commerce
FI,60.2083566,24.7224987,grankulla.metodistkyrkan.fi,Facility
FI,61.4523858,23.899936,www.coherent.com,Facility
FI,64.2168351,27.7125563,libguides.kamk.fi,Facility
FI,64.2260793,27.7300393,ranch.fi,Facility
FI,60.1758899,24.9269671,www.metodistkyrkan.fi,Facility
FI,62.5889342,29.7694322,www.pkky.fi,Facility
FI,64.720541,26.9696479,www.luontoon.fi,Facility
FI,60.1713103,24.9374326,hsl.fi,Facility
FI,62.3451121,26.5493638,www.hakaracing.fi,Unknown
FI,60.9930273,24.4218158,www.hameenlinna.fi,Facility
FI,63.2294088,23.7382269,www.jake.fi,Facility
FI,64.9915641,25.4665443,www.lapti.fi,Facility
FI,60.2936618,25.034896,www.longhua.fi,Facility
FI,62.8860572,27.6960634,www.cafevaino.fi,Facility
FI,61.0560943,26.7070519,frisbeegolfradat.fi,Facility
FI,62.2947395,21.991326,www.kauhajoenmoottorikelkkailijat.org,Facility
FI,60.6338108,27.1172605,www.haminanseudunmoottorikelkkailijat.net,Facility
FI,63.9365134,24.9549923,www.k-rauta.fi,Commerce
FI,60.2606635,24.8535251,www.mrgreens.fi,Commerce
FI,60.8171461,24.6292401,www.s-kaupat.fi,Commerce
FI,62.5988076,29.7587817,www.fantasiapelit.com,Commerce
FI,66.9635729,26.29265,www.rovaniemi.fi,Facility
FI,62.9093308,24.8233322,www.wanhatwehkeet.fi,Facility
FI,60.4494691,22.2663257,kadosushi.fi,Facility
FI,60.2919283,24.9632573,www.foodmarketherkku.fi,Commerce
FI,62.299033,27.157007,po1nt.fi,Facility
FI,60.1632753,24.7392935,www.foreverclub.fi,Facility
FI,60.1679406,24.9406336,mofaic.gov.ae,Facility
FI,60.2602403,24.8914068,www.hiuskulma.fi,Commerce
FI,60.2773822,24.836059,aikataulut.hsl.fi,Facility
FI,62.2405759,25.7202022,www.huoltokukko.fi,Commerce
FI,68.40269,23.894285,www.tosilappi.fi,Facility
FI,62.6015241,29.7597499,joensuuntaidemuseo.fi,Facility
FI,60.2825252,24.9688309,www.vaasan.com,Commerce
FI,61.6727612,27.2770426,www.mikkelinmelojat.fi,Facility
FI,64.128462,29.4753704,finnstadion.fi,Unknown
FI,60.1896836,24.9739583,heinontukku.fi,Commerce
FI,60.2294245,25.0530463,reittiopas.hsl.fi,Facility
FI,60.5867461,22.0432198,www.rakennuspalvelutuomi.fi,Facility
FI,60.3124802,25.0444985,kaupunkipyorat.hsl.fi,Facility
FI,63.1094192,29.7762579,vaara.finna.fi,Facility
FI,60.2128838,19.6052056,www.smartpark.ax,Facility
FI,62.1241296,23.9245505,www.ssjauhemaalaus.fi,Facility
FI,65.412737,27.0320527,www.metsa.fi,Facility
FI,60.1991315,24.8095608,reittiopas.hsl.fi,Facility
FI,60.315753,24.9685572,www.vr.fi,Facility
FI,60.2905713,24.9656848,www.superdry.fi,Commerce
FI,60.255118,24.9700929,www.alfa-art.fi,Facility
FI,60.2827814,24.8419585,aikataulut.reittiopas.fi,Facility
FI,60.1867053,24.9793984,www.burgerjoint.fi,Facility
FI,68.1807194,27.0994339,www.tankavaara.fi,Facility
FI,65.940222,26.486867,www.ranua.fi,Unknown
FI,60.192708,25.04258,hsl.fi,Facility
FI,64.6817226,24.4946352,r-taso.fi,Unknown
FI,62.2920351,27.1514093,www.power4life.fi,Facility
FI,60.2328275,25.1059356,www.sato.fi,Unknown
FI,60.2167307,24.8263963,hsl.fi,Facility
FI,63.556156,29.1065571,www.pielisenfysikaalinen.fi,Facility
FI,65.0146443,25.4767033,www.oulunseurakunnat.fi,Facility
FI,62.2450765,26.1415279,www.gradia.fi,Facility
FI,62.5500187,28.7466744,www.heinavedenmk.net,Facility
FI,60.9705268,25.3076678,www.phmk.fi,Facility
FI,60.8027774,25.7389243,www.k-ruoka.fi,Commerce
FI,65.0010757,25.4914957,oulunliikenne.fi,Facility
FI,62.5943236,30.0791046,alavijukajarvi.nettisivu.org,Facility
FI,60.2582854,24.8513626,www.vantaanseurakunnat.fi,Facility
FI,60.2252365,24.7844171,www.jeesuksenkristuksenkirkko.org,Facility
FI,60.2038803,24.8708833,hsl.fi,Facility
FI,61.4954349,27.2732146,www.mikkelintuomiokirkkoseurakunta.fi,Facility
FI,60.1590987,24.939235,www.velvet.fi,Commerce
FI,60.9439924,22.4161958,www.kristalliranta.fi,Facility
FI,60.2088739,24.7287205,www.kauniainen.fi,Facility
FI,60.903624,24.517581,leirintaopas.fi,Facility
FI,60.6178101,26.1860009,www.fishermans.fi,Facility
FI,60.5661356,22.1034187,m-kiinteistopalvelu.fi,Facility
FI,60.2420007,24.0515985,www.rengasjavannemyynti.fi,Commerce
FI,62.3074393,22.4514381,www.kauhajoenmoottorikelkkailijat.org,Facility
FI,62.3661181,25.8573671,www.lumikiitajat.fi,Facility
FI,60.209477,25.037482,hsl.fi,Facility
FI,60.692426,26.8380016,www.s-kaupat.fi,Commerce
FI,61.0443515,28.1799869,www.neste.fi,Facility
FI,62.8871832,27.6905656,www.pohjois-savo.fi,Facility
FI,60.169785,24.9271007,www.hotelhelka.com,Facility
FI,60.4752224,25.111855,www.lidl.fi,Commerce
FI,60.2367519,24.8924067,www.kauppakeskuskaari.fi,Commerce
FI,68.3840375,23.6046106,www.ounasloma.com,Facility
FI,61.4933608,23.7669851,www.fafas.fi,Facility
FI,59.9733391,23.4388118,www.rkfysio.fi,Commerce
FI,60.3318863,25.0174227,aikataulut.reittiopas.fi,Facility
FI,64.1297334,29.4771099,kuhmonrengas.fi,Commerce
FI,61.1479262,28.8116896,disasfish.fi,Commerce
FI,60.2965559,25.0387693,aikataulut.reittiopas.fi,Facility
FI,63.8360696,28.1642295,www.vuokatti.fi,Facility
FI,62.36019,25.7779,27crags.com,Facility
FI,64.141316,28.293775,www.vuokatti.fi,Unknown
FI,61.7040661,27.244551,www.saimaastadiumi.fi,Unknown
FI,63.0725366,21.6971531,24pesula.fi,Commerce
FI,62.3898979,26.4363424,www.k-ruoka.fi,Commerce
FI,60.2182233,24.8128216,www.robertscoffee.com,Facility
FI,60.1866137,24.9719487,www.suvilahti.fi,Facility
FI,64.2611242,23.9492153,www.k-ruoka.fi,Commerce
FI,60.1839832,24.8192897,otaniemenlukio.fi,Facility
FI,64.1295571,29.5213487,lehtoky.fi,Commerce
FI,60.5728975,21.3062404,visitkustavi.fi,Facility
FI,60.3949896,25.6637721,www.easyfit.fi,Facility
FI,61.4993615,23.7521034,www.morsiusgalleria.com,Commerce
FI,62.895346,29.0347115,www.pohjoiskarjalankelkkaurat.fi,Unknown
FI,60.216866,24.810667,nepalpalace.fi,Facility
FI,60.3952039,22.2174511,www.suntrail.fi,Facility
FI,60.4452853,22.6999264,www.verkanappulat.fi,Facility
FI,60.2202001,24.8790544,www.sharp.fi,Facility
FI,60.1682814,24.7443224,veho.fi,Commerce
FI,60.9507527,25.649613,www.laakkonen.fi,Commerce
FI,62.4108815,30.6598032,www.pohjoiskarjalankelkkaurat.fi,Facility
FI,62.1894615,25.7015089,www.abcasemat.fi,Facility
FI,60.563724,27.1983344,minetti.fi,Facility
FI,61.7962262,27.3578228,mmkry.fi,Unknown
FI,62.6228807,22.4206459,kurikka.fi,Facility
FI,65.7499583,24.6441327,www.kemi.fi,Facility
FI,61.4925493,21.8416357,www.rantakartano.net,Facility
FI,62.43938,23.6308935,www.sapsalampi.fi,Facility
FI,61.1722634,25.5513536,www.s-kaupat.fi,Commerce
FI,62.174729,25.7423909,jalkaisin.blogspot.com,Facility
FI,60.4493071,22.2388129,www.esperi.fi,Facility
FI,67.8050222,24.7985049,www.polarstartravel.fi,Facility
FI,61.1768133,22.7031861,abcasemat.fi,Facility
FI,62.3622878,22.1127329,botniagolf.com,Facility
FI,60.4512711,22.2588554,www.linnateatteri.fi,Facility
FI,60.8677239,26.7040003,www.kouvola.fi,Facility
FI,60.1834248,24.7944668,www.sanluca.fi,Facility
FI,63.4474003,30.2889821,www.pohjoiskarjalankelkkaurat.fi,Facility
FI,60.9790053,25.6570308,www.kristosofia.fi,Commerce
FI,60.1682134,24.9309492,meb.fi,Commerce
FI,64.2301161,23.8150308,www.abcasemat.fi,Facility
FI,60.4854237,22.1654217,www.raisiokeskus.fi,Unknown
FI,60.2750807,25.0789049,www.abcasemat.fi,Facility
FI,60.3982872,25.1153749,oppilaitokset.kerava.fi,Facility
FI,60.1635922,22.7346618,rinkiin.fi,Facility
FI,66.2361327,25.4075586,www.rovaniemi.fi,Unknown
FI,60.1460134,24.989305,www.linnabar.fi,Facility
FI,64.1141202,29.4346207,www.kuik.fi,Facility
FI,60.1636917,24.9137025,www.ruoholahdenassaapteekki.fi,Facility
FI,60.1884772,24.9579686,www.broner.fi,Facility
FI,60.476841,24.8334471,www.esperi.fi,Facility
FI,62.2596771,25.7802434,reim.fi,Facility
FI,60.1866838,24.9608701,www.kauppalehti.fi,Unknown
FI,60.2389613,24.8501371,www.ravintolalaventeli.fi,Facility
FI,60.229125,24.8528799,www.kyppi.fi,Facility
FI,62.5481574,24.8893774,www.lantk-smk.fi,Unknown
FI,66.3530945,26.3049448,www.rovaniemi.fi,Unknown
FI,60.174336,24.9886504,www.korkeasaarenravintolat.fi,Facility
FI,60.4489279,22.2655477,dennis.fi,Facility
FI,60.1760591,24.8042467,www.synlab.fi,Facility
FI,63.5329652,22.541656,www.s-kaupat.fi,Commerce
FI,62.7319955,22.6288356,www.ilmajoenmoottorikelkkailijat.fi,Facility
FI,63.3661078,27.3901448,www.s-kaupat.fi,Commerce
FI,60.9828476,25.6573292,kaukonkellojakulta.fi,Commerce
FI,60.9884981,25.7265295,www.humana.fi,Facility
FI,60.1465332,24.7016358,www.espoo.fi,Unknown
FI,62.9768822,25.2637374,www.kannonkoski.fi,Facility
FI,60.2107572,24.8247381,hsl.fi,Facility
FI,62.6003605,29.7633949,joensuuntaidemuseo.fi,Facility
FI,62.1042766,29.8430246,www.hepovaara.com,Facility
FI,61.0474926,24.3387118,hattula.fi,Facility
FI,67.5992711,24.1136217,kuerkievari.fi,Facility
FI,60.2088207,25.0986964,www.gaius-saatio.fi,Facility
FI,61.496842,23.7992701,hardstyletampere.webflow.io,Commerce
FI,60.6934747,26.012805,www.porlamminkartano.fi,Facility
FI,65.0086704,25.5133989,oulunpysakointi.fi,Facility
FI,60.2442734,24.8829292,www.helsinginseurakunnat.fi,Facility
FI,61.0443488,28.1801562,www.burgerking.fi,Facility
FI,61.2055935,26.0158431,www.kumpeli.fi,Facility
FI,61.7228477,25.1342326,puukkoistenladut.nettisivu.org,Facility
FI,60.3085286,22.3014694,www.s-kaupat.fi,Commerce
FI,61.5553094,23.5603525,www.k-rauta.fi,Commerce
FI,60.1868885,24.980094,www.reima.com,Commerce
FI,60.6091174,27.1382131,www.haminanseudunmoottorikelkkailijat.net,Unknown
FI,60.1790857,24.8315539,swinghouse.fi,Unknown
FI,60.8828769,26.6458254,www.kouvola.fi,Facility
FI,60.456059,22.2687437,www.asejaera.fi,Facility
FI,65.0207675,25.4987285,www.punavarpunen.org,Facility
FI,60.1896084,24.6001973,www.r-kioski.fi,Commerce
FI,60.2808393,24.9714599,www.teboil.fi,Facility
FI,60.3236073,25.0603776,www.vr.fi,Facility
FI,62.8810156,27.6545366,elava.fi,Facility
FI,61.978937,24.708185,www.k-psk.com,Unknown
FI,64.6827014,24.4844947,konstiry.fi,Commerce
FI,60.4680573,22.0261027,uunipizzeria.fi,Facility
FI,60.2050874,25.13613,ravintolanewlight.com,Facility
FI,64.9342264,25.4088272,www.cafemessi.fi,Facility
FI,61.4403223,24.1304585,mobilia.fi,Facility
FI,60.2014154,25.1532408,www.red1.fi,Commerce
FI,65.1990001,25.3960842,www.ouka.fi,Facility
FI,64.228384,27.7255505,www.wanhakerho.fi,Facility
FI,64.5601023,26.8430167,www.k-ruoka.fi,Commerce
FI,60.3253737,24.2948697,www.lankapaja.fi,Facility
FI,60.1882357,24.9547331,www.oishi18.fi,Facility
FI,60.4387914,25.1300947,www.honka.fi,Facility
FI,62.4841301,21.7511646,www.hyvaep.fi,Facility
FI,60.1629998,24.9434464,ihohoitolalupaus.fi,Commerce
FI,60.4085171,25.668822,www.s-kaupat.fi,Commerce
FI,60.2339797,24.9902869,longinoja.fi,Facility
FI,60.384567,25.107884,indiahouse.fi,Facility
FI,61.467183,23.838862,www.nysse.fi,Facility
FI,62.9802162,27.7017903,www.studioamilia.fi,Commerce
FI,60.4452747,22.2749378,www.kaskenapteekki.fi,Facility
FI,62.6264297,29.7753636,www.skuba.fi,Commerce
FI,60.4790854,22.686968,www.paimio.fi,Facility
FI,60.9804879,25.6580514,exx.fi,Facility
FI,60.5355674,24.2136684,www.sateenkaarenhammas.fi,Facility
FI,60.9302015,25.5266181,hakosilta-nostava.net,Facility
FI,62.5272681,29.3966211,www.liperi.fi,Facility
FI,60.9944219,24.4556883,freebike.rolan.fi,Unknown
FI,60.3584324,22.2710944,www.hirvilampi.fi,Facility
FI,60.9828814,25.6610247,www.burgerking.fi,Facility
FI,61.5149035,23.6706514,www.loytotex.fi,Commerce
FI,62.2198301,25.2713012,www.kelkkailijat.net,Facility
FI,60.4710365,25.0886559,www.studiot123.com,Facility
FI,64.9574165,25.528854,www.r-kioski.fi,Commerce
FI,60.2352128,24.960662,www.curlinghalli.fi,Facility
FI,60.2841784,25.2982944,reittiopas.hsl.fi,Facility
FI,60.3213641,24.832517,aikataulut.reittiopas.fi,Facility
FI,60.4375766,22.2461257,ta.fi,Unknown
FI,62.272345,21.4034132,www.geritrim.fi,Facility
FI,60.2920259,25.0420625,www.rax.fi,Commerce
FI,60.2525569,25.0087101,www.suski.fi,Facility
FI,60.6752956,26.0177473,www.porlammi.fi,Facility
FI,62.8928589,27.6745536,www.ilovekuopio.fi,Facility
FI,60.1619636,24.9381075,www.liilizstudio.com,Commerce
FI,60.2397419,24.8570512,www.siskonsiivous.fi,Facility
FI,61.2205973,26.0832741,www.heinolanilveskelkat.com,Facility
FI,60.3090778,25.0345409,aikataulut.reittiopas.fi,Facility
FI,66.9490594,28.8892362,loma.salla.fi,Facility
FI,60.1873539,24.9792393,www.glitter.fi,Commerce
FI,60.2696244,24.8003564,www.vantaanseurakunnat.fi,Facility
FI,60.4175861,24.3230449,www.relaxvihti.fi,Commerce
FI,61.5023601,23.7708575,www.houseofdance.fi,Facility
FI,60.4566666,26.2267095,www.tilimoy.fi,Facility
FI,61.8656495,25.1881828,www.r-kioski.fi,Commerce
FI,60.1950377,24.9445208,www.temporunningstore.com,Facility
FI,61.1642793,21.7108887,www.capricoffee.fi,Commerce
FI,60.1873805,24.9557614,www.barhesari.fi,Facility
FI,62.1013691,26.7841547,www.puulankelkkailijat.com,Unknown
FI,61.4653892,23.8872608,www.turkinpippuritampere.fi,Facility
FI,61.1353448,26.1444928,kyvi.fi,Facility
FI,60.2060944,24.8782475,www.s-kaupat.fi,Commerce
FI,60.2522207,25.1069747,www.campocenter.fi,Facility
FI,60.1678694,24.9290685,www.radissonblu.com,Facility
FI,60.17169,24.9541231,www.dongbeihu.fi,Facility
FI,60.4889008,22.2613432,www.foodie.fi,Commerce
FI,61.4956301,23.7602161,www.kapteenska.fi,Commerce
FI,60.1720314,24.9476454,www.hamhelsinki.fi,Facility
FI,60.7655219,26.7867211,www.posti.fi,Facility
FI,61.7011368,27.3051187,www.r-kioski.fi,Commerce
FI,60.2601411,24.8422788,nolistudios.com,Facility
FI,62.9140315,28.1610103,www.upmmetsa.fi,Facility
FI,60.2975139,23.0840242,www.elakeliitto.fi,Facility
FI,60.5761181,21.9844434,www.anc.fi,Facility
FI,61.5260349,23.9588874,puolustusvoimat.fi,Facility
FI,60.1495708,24.6548421,www.alko.fi,Commerce
FI,60.4299637,22.3231479,www.mustijamirri.fi,Commerce
FI,62.850695,27.6430668,peda.net,Facility
FI,63.5895501,29.1789446,www.jatekukko.fi,Unknown
FI,63.9061178,24.5701487,www.ojalamachine.com,Unknown
FI,60.9048425,25.2435891,www.huovilanpuisto.fi,Facility
FI,60.9991554,24.4647661,hmlmuseo.fi,Facility
FI,60.6413403,26.7566639,kyvi.fi,Facility
FI,62.0184275,26.9145298,www.rockandlake.com,Facility
FI,60.265471,24.7307612,aikataulut.reittiopas.fi,Facility
FI,65.1195786,29.770586,www.metsa.fi,Facility
FI,60.4500306,22.2343703,www.pawsiteam.fi,Facility
FI,61.0494198,26.4871997,krm-paavolainen.com,Commerce
FI,60.6348756,27.2308078,haminanseurakunta.fi,Unknown
FI,61.1801533,22.6961821,www.tilitoimistohaapala.fi,Facility
FI,63.1082195,29.7919882,www.elontila.fi,Facility
FI,62.6192915,29.7465259,www.wp-putki.fi,Commerce
FI,60.2466695,24.8613006,velomania.fi,Unknown
FI,60.6874686,26.7988964,www.danpii.fi,Facility
FI,60.9832638,25.6522169,www.flowcali.fi,Commerce
FI,60.1863713,24.7460545,www.24pesula.fi,Commerce
FI,61.0011873,24.4830974,www.tanssikeskus.com,Facility
FI,60.3768659,25.2716155,www.alko.fi,Commerce
FI,62.0228402,29.7362489,www.pohjoiskarjalankelkkaurat.fi,Unknown
FI,60.1535068,24.9311854,hsl.fi,Facility
FI,62.8007418,22.843038,www.carcom.fi,Commerce
FI,60.1619249,25.0306021,www.jytymetropoli.fi,Facility
FI,62.730579,22.5772096,www.abcasemat.fi,Facility
FI,64.8094909,25.4120981,lakeustalo.fi,Unknown
FI,62.3170519,27.8755709,morton.fi,Facility
FI,66.2861025,25.2314086,www.parpalandia.com,Facility
FI,60.1652197,24.9322832,www.grandelicato.fi,Facility
FI,60.2704513,24.8551693,aikataulut.reittiopas.fi,Facility
FI,60.2933202,24.9799618,www.siemenjakone.com,Commerce
FI,67.5802264,24.2026034,yllas.skiperformance.com,Commerce
FI,67.4162483,26.5925513,pirita.fi,Commerce
FI,62.9093893,24.8224559,www.wanhatwehkeet.fi,Facility
FI,60.2464035,24.8603255,www.helmet.fi,Facility
FI,60.1998897,24.963531,scl.fi,Facility
FI,60.1691518,24.964508,www.hamhelsinki.fi,Facility
FI,60.8493229,25.3022783,www.karkolanriistamiehet.fi,Facility
FI,61.2485118,27.4347479,savitaipaleenmkk.fi,Unknown
FI,66.1502232,29.5610118,www.pohjolanpirtti.fi,Facility
FI,60.2154812,24.7598025,loftgym.fi,Facility
FI,60.1994595,24.9253072,www.muistiliitto.fi,Facility
FI,60.1636845,24.8700761,www.lvry.fi,Facility
FI,61.4919209,23.8431791,www.lidl.fi,Commerce
FI,62.7862322,22.8074119,www.s-kaupat.fi,Commerce
FI,64.1267181,29.51585,www.sanninco.fi,Commerce
FI,62.6303899,29.5465394,www.liperi.fi,Unknown
FI,68.6697662,25.7790783,www.luontoon.fi,Facility
FI,61.1787445,25.5218532,www.vaaksynjaahalli.fi,Facility
FI,60.1975329,24.899261,hsl.fi,Facility
FI,60.4523508,22.2846798,starimage.fi,Commerce
FI,60.1649774,24.8995302,www.hel.fi,Facility
FI,64.6853064,24.4785474,www.altomare.fi,Facility
FI,60.2097408,25.0671344,smashtennis.sporttisaitti.com,Facility
FI,60.4669384,24.8062625,www.neste.fi,Facility
FI,62.5562311,23.5387511,susemk.fi,Unknown
FI,60.1675077,24.9381877,salonfemme.fi,Commerce
FI,60.2391202,24.8546576,www.aminoporssi.fi,Commerce
FI,60.8806923,21.6948641,laitilankievari.fi,Facility
FI,62.3003301,27.1583017,www.taitoitasuomi.fi,Commerce
FI,60.2751331,25.0817184,www.villaseverino.fi,Facility
FI,62.2101868,23.1794177,www.kihnio.fi,Facility
FI,60.0065388,24.1433514,www.kivenlahdenvenekerho.fi,Facility
FI,62.3742112,25.8349104,www.lumikiitajat.fi,Unknown
FI,62.3932658,28.7485768,www.kermankeidas.fi,Facility
FI,60.3751731,25.1068643,www.seteam.fi,Commerce
FI,60.276421,24.8079967,formula7.fi,Facility
FI,60.2817883,24.8236856,aikataulut.reittiopas.fi,Facility
FI,67.805306,24.7966203,www.k5levi.fi,Facility
FI,60.8686123,22.9914331,www.k-market.fi,Commerce
FI,60.4860577,22.1674422,www.raisionfysioterapia.fi,Facility
FI,61.488596,21.7514331,www.abcasemat.fi,Facility
FI,60.3828213,24.8365071,reittiopas.hsl.fi,Facility
FI,64.8027911,27.5672708,www.metsa.fi,Facility
FI,62.5812355,29.7701948,www.s-kaupat.fi,Commerce
FI,63.8452809,23.1080571,www.soite.fi,Facility
FI,60.2295069,24.762907,www.eeks.fi,Facility
FI,61.4955648,23.7792775,www.mukanetti.net,Facility
FI,60.1946416,24.9640525,www.helsinginseurakunnat.fi,Facility
FI,64.8079127,25.4607509,www.ralamk.fi,Unknown
FI,60.2960795,25.0158988,aikataulut.reittiopas.fi,Facility
FI,60.2844636,24.9099847,www.k-ruoka.fi,Commerce
FI,60.8016169,21.414099,www.mielenterveysseurat.fi,Facility
FI,65.0274783,25.5536561,www.ouka.fi,Facility
FI,63.0948743,21.616086,www.panoramavaasa.fi,Facility
FI,62.0193511,25.5682494,www.hyvaks.fi,Facility
FI,60.2924108,24.9734408,www.philips.fi,Facility
FI,62.969932,23.0086299,www.kauhavanhalpakauppa.fi,Commerce
FI,62.7588349,25.9410253,matilanankkuri.madcaps.fi,Facility
FI,60.291653,25.036532,aikataulut.reittiopas.fi,Facility
FI,60.2025129,24.9680778,www.life.fi,Commerce
FI,60.2282239,25.0718717,reittiopas.hsl.fi,Facility
FI,65.0255551,25.4853095,tarlab.fi,Facility
FI,62.1369466,25.6727623,www.kotipizza.fi,Facility
FI,63.1394279,21.6269497,www.waasasnowmobile.fi,Facility
FI,60.1915147,24.9109076,www.st1.fi,Facility
FI,60.2365398,25.0847118,www.hel.fi,Facility
FI,63.0992914,23.0389834,hopea-puro.com,Commerce
FI,61.5637951,25.1816767,keski.finna.fi,Facility
FI,60.2270652,24.7415087,viherlaakso.ole.fit,Facility
FI,60.4513019,22.2652025,chinathai.fi,Facility
FI,69.0317481,20.831828,www.kilpisjarvenladut.fi,Unknown
FI,62.1150079,28.6040425,www.oravivillage.com,Facility
FI,60.1542849,24.8795894,www.lauttasaarenkirkkoapteekki.fi,Facility
FI,64.1743879,25.9616643,www.s-kaupat.fi,Commerce
FI,63.1075972,31.1250937,www.pohjoiskarjalankelkkaurat.fi,Unknown
FI,60.9847545,25.6626016,cosmeticclinic.fi,Commerce
FI,67.8051057,24.806019,oldmates.fi,Facility
FI,60.2180515,24.8099675,www.prisma.fi,Commerce
FI,60.8725136,26.6809834,kaakkuri.finna.fi,Facility
FI,62.7317647,29.0249436,peda.net,Facility
FI,60.4520821,22.2675341,www.ravintolaagnes.fi,Facility
FI,64.2953288,29.3827008,www.lomarengas.fi,Facility
FI,60.4193756,22.3826147,asemat.neste.fi,Facility
FI,60.4494152,22.2941806,www.aveso.fi,Facility
FI,61.340523,22.9332799,www.sastamala.fi,Facility
FI,60.9786678,25.6832637,moysanapteekki.fi,Facility
FI,62.8726815,24.8202065,www.kouheronkelkkailijat.fi,Unknown
FI,61.2962785,25.6819673,www.viini-pihamaa.fi,Commerce
FI,60.8118473,23.6364772,www.forssankeskusapteekki.fi,Facility
FI,60.4684751,22.1743309,www.pyorakiesi.fi,Commerce
FI,62.6015167,25.7216099,kinohirvi.fi,Facility
FI,63.0022419,23.8131768,digiruokalista.com,Facility
FI,60.4786272,26.0802172,www.kohava18.info,Facility
FI,59.9752446,23.4369042,butik.popana.fi,Commerce
FI,60.4301614,22.3225345,koskenleipomo.fi,Commerce
FI,60.6251752,26.1990805,www.lapinjarvi.fi,Facility
FI,60.4728587,22.3110597,www.padelx.fi,Facility
FI,61.3543375,24.0957023,uotilaloma.fi,Facility
FI,61.1231461,21.5020144,www.fressi.fi,Facility
FI,60.3253764,24.3068439,www.rinnekoti.fi,Facility
FI,62.5713638,23.6032213,www.lounas66.fi,Facility
FI,61.4946981,23.8820282,www.pirha.fi,Facility
FI,62.294715,25.5310087,www.lumikiitajat.fi,Facility
FI,62.2448659,25.7500133,explosivebar.com,Facility
FI,60.453365,25.0564611,www.tpsail.net,Facility
FI,62.4621473,23.3020742,www.ep-moke.fi,Facility
FI,60.8882151,26.3398076,qstudio.fi,Commerce
FI,68.4032406,24.4871064,www.tosilappi.fi,Unknown
FI,60.4362997,22.3240805,www.turku.fi,Facility
FI,61.4934228,23.4498802,www.rastinokia.fi,Facility
FI,60.456217,22.2637892,www.partio.fi,Facility
FI,62.4609784,22.1963691,www.jorakenne.fi,Facility
FI,60.2177093,24.8694455,www.r-kioski.fi,Commerce
FI,63.7389417,27.014655,www.vieremanseurakunta.fi,Facility
FI,60.7881882,25.0268741,www.s-kaupat.fi,Commerce
FI,61.1170268,22.1628252,www.teamsportia.fi,Commerce
FI,60.1735144,24.9291818,www.helsinginmontessori.fi,Facility
FI,60.2931613,25.0439285,www.hairstore.fi,Commerce
FI,60.4040644,25.140639,www.s-kaupat.fi,Commerce
FI,60.6487065,21.9535573,www.asra.fi,Facility
FI,60.2376416,24.8765524,norttipaikalle.fi,Commerce
FI,60.2124353,25.0798487,www.hel.fi,Facility
FI,60.4765442,25.1022121,www.alko.fi,Commerce
FI,61.1972574,27.6827536,www.sahrami.fi,Facility
FI,61.4593824,23.7883041,www.abcasemat.fi,Facility
FI,60.2360235,25.018949,www.hel.fi,Facility
FI,62.3378065,26.5384508,www.hakaracing.fi,Unknown
FI,60.4301135,22.3225641,www.junglejuicebar.com,Facility
FI,60.1881055,25.0306787,www.kampicoffee.com,Facility
FI,62.7989194,27.9049535,www.ilmatieteenlaitos.fi,Facility
FI,62.7884721,22.8473955,www.sokoshotels.fi,Facility
FI,61.0530976,25.4306399,www.kunnantupa.fi,Facility
FI,61.483274,23.762064,www.nysse.fi,Facility
FI,68.3799247,24.238277,www.tosilappi.fi,Unknown
FI,60.412296,22.2360965,www.k-ruoka.fi,Commerce
FI,60.1581094,24.9132354,vacco.webnode.fi,Facility
FI,64.0656788,23.6467859,himanka.webs.com,Facility
FI,62.9742442,23.0239655,www.alko.fi,Commerce
FI,62.2417527,25.7063947,www.crossfitharju.com,Facility
FI,69.5057785,26.3053088,www.luontoon.fi,Facility
FI,60.1711737,24.9411342,www.hesburger.fi,Facility
FI,60.982847,25.6539625,huoneistokeskus.fi,Facility
FI,63.5803844,28.4392159,www.lsmk.fi,Facility
FI,62.4846106,30.6203754,wirsuvaara.fi,Facility
FI,62.6134901,29.5469072,www.kuntokeskusenergy.com,Facility
FI,60.1910832,24.5876083,www.espoo.fi,Facility
FI,61.5019607,23.7592114,www.mehilainen.fi,Facility
FI,60.8795203,22.4112332,www.riihikoskenapteekki.fi,Facility
FI,65.9845554,29.1688581,asemat.neste.fi,Facility
FI,60.2388984,24.8764114,www.kanneltalo.fi,Commerce
FI,60.2739384,25.0986216,www.vantaa.fi,Facility
FI,60.4526449,22.2565604,www.avantgarde.fi,Commerce
FI,63.7183998,24.6631262,www.jokikelkka.fi,Unknown
FI,60.187453,24.97789,www.voltfashion.com,Commerce
FI,62.6742853,29.6088751,www.pohjoiskarjalankelkkaurat.fi,Facility
FI,65.1659805,29.5104465,www.suomussalmi.fi,Facility
FI,60.189915,24.976382,chingu.fi,Facility
FI,61.1812281,23.8722574,www.snowraceclub.fi,Unknown
FI,61.4735744,23.8739433,www.kotipizza.fi,Facility
FI,66.1073404,28.18387,www.posionkelkkareitit.com,Unknown
FI,61.8424629,25.7867302,jslumikissat.blogspot.com,Unknown
FI,62.6018067,29.7279248,linnunlahtispy.siirtolapuutarhaliitto.fi,Unknown
FI,60.4228186,22.1725678,www.satotu.com,Facility
FI,60.1588513,24.946108,ravintolapontus.fi,Facility
FI,60.1787455,24.7871925,www.tapiolanhonka.fi,Facility
FI,63.0677536,25.8463792,viitasaari.fi,Facility
FI,66.110347,28.1705526,www.hotelliposio.fi,Facility
FI,60.4538458,22.266105,www.aitoi.fi,Commerce
FI,62.4149964,25.9515327,pubjuoma.fi,Facility
FI,60.1815633,25.0027526,www.skes.fi,Unknown
FI,60.7069004,26.8287625,www.kouvola.fi,Unknown
FI,64.2631784,23.9478443,vianor.fi,Commerce
FI,61.4902561,23.8218643,www.gigantti.fi,Commerce
FI,61.2577098,25.9704865,www.heinolanilveskelkat.com,Unknown
FI,62.2933805,25.8108984,www.vehotrucks.fi,Commerce
FI,60.2786159,25.1203859,www.vantaa.fi,Facility
FI,60.2520721,25.0063962,suutaripalvelu.fi,Commerce
FI,65.8067339,29.5047682,www.kuusamo.fi,Unknown
FI,62.7921815,22.7738854,www.seinajoki.fi,Facility
FI,60.308208,25.0208554,www.ravintolaelpaso.fi,Facility
FI,63.6878969,25.9755354,www2.pyhajarvi.fi,Facility
FI,61.005253,24.5060126,asemat.neste.fi,Facility
FI,60.455512,22.284492,palatsi.co,Facility
FI,66.714374,27.4294477,personal.inet.fi,Facility
FI,60.9956927,25.6520942,bistrokokka.fi,Facility
FI,61.5350779,23.9396465,www.pikkupursi.fi,Facility
FI,60.4459655,22.2583024,diplomatie.belgium.be,Facility
FI,65.6774266,28.2738536,www.luontoon.fi,Facility
FI,64.8622548,25.5211484,www.abcasemat.fi,Unknown
FI,61.4998622,23.7836137,ehyt.fi,Facility
FI,60.4718526,22.2215734,www.foli.fi,Facility
FI,61.3392209,23.0431023,sastamala.fi,Facility
FI,60.1800707,24.9589954,reittiopas.hsl.fi,Facility
FI,64.1308756,28.311481,www.haapalabnb.fi,Commerce
FI,60.4607102,23.5514171,vaski.finna.fi,Facility
FI,60.1610619,24.7397701,www.pantti.fi,Commerce
FI,60.1990331,24.9280569,theshallot.net,Facility
FI,60.6165956,26.1881438,kelkkatouring.fi,Unknown
FI,60.1672131,24.9362154,www.salonpacifique.fi,Commerce
FI,60.8734132,26.6091285,liikennetilanne.tmfg.fi,Facility
FI,60.3235606,25.0581912,aikataulut.reittiopas.fi,Facility
FI,60.440388,22.343569,www.attendo.fi,Facility
FI,60.6954564,27.0126044,harmantila.fi,Commerce
FI,60.2909113,24.9683449,www.spiceice.fi,Facility
FI,60.1000322,19.9416072,www.bagelbee.ax,Facility
FI,62.4142936,25.9597067,www.laukaanteatteri.fi,Facility
FI,60.1785852,23.9990297,asemat.neste.fi,Facility
FI,62.2931134,22.0642401,www.kauhajoenmoottorikelkkailijat.org,Unknown
FI,60.2309826,24.8653022,www.carnova.fi,Commerce
FI,60.1969275,24.7819995,www.tapiolagolf.fi,Facility
FI,61.4951108,23.7750615,www.amica.fi,Facility
FI,67.6200443,24.1742338,karhumaja.fi,Facility
FI,62.1403595,25.7693803,hiusstudio-aalto.kampaa.fi,Commerce
FI,60.3859341,23.1265175,www.ravintolaolivia.fi,Facility
FI,60.5040371,22.4605569,www.liedonapteekki.fi,Facility
FI,60.1769284,24.9227632,www.hamhelsinki.fi,Facility
FI,63.3712094,25.5735331,www.s-kaupat.fi,Commerce
FI,61.1775511,25.5326172,vaaksynmylly.fi,Commerce
FI,60.8705877,26.7115833,yle.fi,Facility
FI,60.80039,21.41056,www.hesburger.fi,Facility
FI,60.4565892,26.1933654,loviisapadel.fi,Facility
FI,60.2090304,25.0837097,kontti.punainenristi.fi,Commerce
FI,60.2998567,25.3071245,www.kakkukartano.fi,Facility
FI,59.8228008,22.9695005,www.hanko.fi,Facility
FI,60.1540763,24.8793159,hsl.fi,Facility
FI,61.9944328,24.5943944,www.rapukartano.fi,Facility
FI,61.467033,23.5104596,www.k-ruoka.fi,Commerce
FI,60.5031286,25.6917635,hoviajelu.nettisivu.org,Unknown
FI,61.5207019,28.1797916,www.teboil.fi,Facility
FI,60.2126613,24.7274046,www.s-kaupat.fi,Commerce
FI,60.1942893,24.8819018,www.hamhelsinki.fi,Facility
FI,60.1696179,24.9472032,www.sokoshotels.fi,Facility
FI,62.3056285,28.0645553,www.hakeracingteam.net,Unknown
FI,62.4786825,26.3063092,www.hakaracing.fi,Unknown
FI,60.3785384,24.7547967,ratamo.verkkokirjasto.fi,Facility
FI,60.5443815,27.4289524,www.haminanseudunmoottorikelkkailijat.net,Unknown
FI,61.1264311,21.5000436,www.scandichotels.fi,Facility
FI,60.234995,24.8094944,www.seniorikodit.fi,Facility
FI,62.5754426,23.6114246,www.alavus.fi,Facility
FI,63.8121913,24.4794671,www.jokikelkka.fi,Unknown
FI,60.2575633,25.013108,hsl.fi,Facility
FI,62.6132864,24.2073446,susemk.fi,Unknown
FI,60.2934915,25.031132,www.sagarmatha.fi,Facility
FI,61.3124688,23.7519404,lvs.fi,Facility
FI,65.0391011,25.5759355,www.speedgear.fi,Commerce
FI,60.1719627,24.9566654,manuelabosco.com,Facility
FI,61.4966406,23.80058,rosevendela.ekukka.fi,Commerce
FI,60.995149,25.6150945,myllysaari.fi,Facility
FI,66.699511,25.3566538,www.rovaniemi.fi,Facility
FI,60.3472344,21.9564564,www.bsp.fi,Commerce
FI,63.6754823,22.705695,www.stadshotellet-jakobstad.fi,Facility
FI,62.1054774,30.1405483,www.karjalainen.fi,Facility
FI,60.450671,22.2689224,www.gryn.fi,Commerce
FI,60.2097771,25.1353739,www.vuosaarenpyorahuolto.fi,Commerce
FI,62.3548766,21.940456,www.kauhajoenmoottorikelkkailijat.org,Unknown
FI,61.4860194,21.7933723,www.hostelbuisto.fi,Facility
FI,62.8262275,24.4705135,www.kouheronkelkkailijat.fi,Unknown
FI,63.674749,22.7067459,www.power.fi,Commerce
FI,60.1598291,24.8807432,www.k-ruoka.fi,Commerce
FI,60.3814,24.7398675,www.nurmijarvi.fi,Facility
FI,60.1840451,24.9477556,kallionretro.kotisivukone.com,Commerce
FI,60.2432234,24.9790032,seo.fi,Facility
FI,60.2498921,24.9229663,www.paivakumpuhoiva.fi,Facility
FI,60.4589015,26.9645504,kaakau.fi,Facility
FI,67.4201235,26.5910629,lapinlukitus.fi,Commerce
FI,61.7465947,26.0906925,jslumikissat.blogspot.com,Unknown
FI,61.5580264,23.57158,pixelo.fi,Facility
FI,62.3147434,27.8372379,touhula.fi,Facility
FI,62.7893754,22.8425957,www.scandichotels.fi,Facility
FI,60.1874668,24.9608146,kukkakauppa24.fi,Commerce
FI,60.4936421,22.2037396,burgerking.fi,Facility
FI,62.6250111,26.8261546,www.nuapuri.fi,Facility
FI,62.7999561,22.8462843,www.vepsalainen.com,Commerce
FI,60.1752689,24.8048295,www.fotoyks.fi,Commerce
FI,60.1600668,24.8808871,www.s-kaupat.fi,Commerce
FI,60.4161304,22.4399591,tuorlanmajatalo.fi,Facility
FI,60.2456151,24.8548745,saipu.fi,Facility
FI,60.4881137,26.5545614,aeronautica.fi,Facility
FI,61.4415781,23.8512439,www.tampere.fi,Facility
FI,62.8993756,27.6724127,www.kuopionseurakunnat.fi,Unknown
FI,60.165181,24.9487711,www.hamhelsinki.fi,Facility
FI,66.6792198,25.3334746,www.rovaniemi.fi,Facility
FI,60.2602145,24.8536676,www.sol.fi,Commerce
FI,61.4765477,23.7938485,www.dahl.fi,Commerce
FI,66.7594366,28.7642957,loma.salla.fi,Facility
FI,63.7221112,24.7783356,www.urjanlinna.net,Facility
FI,62.9684446,23.0093799,www.instru.fi,Commerce
FI,60.4558142,22.2690733,www.enigmahair.fi,Commerce
FI,67.5635289,24.22492,www.yllasravintolat.fi,Facility
FI,60.4624813,24.8093855,www.seitsemanveljesta.fi,Facility
FI,60.4502709,22.2630052,www.q-park.fi,Facility
FI,62.6033427,29.7621479,plazacentrum.fi,Commerce
FI,61.8778353,21.8233595,www.visitsatakunta.fi,Facility
FI,61.4362274,26.8645376,www.pirtakka.fi,Commerce
FI,62.8810708,27.6816698,kynnys.fi,Facility
FI,62.6863459,21.9819695,www.kotoosa.fi,Facility
FI,61.0565569,28.1934069,www.suomalainen.com,Commerce
FI,60.2060974,24.707507,www.s-kaupat.fi,Commerce
FI,60.2179175,24.871198,hsl.fi,Facility
FI,65.0150862,25.4608087,www.boottiravintola.fi,Facility
FI,60.1980923,24.6712923,www.espoo.fi,Facility
FI,60.784677,26.9836003,www.raussigolf.fi,Facility
FI,60.174932,24.8298656,www.fazer.fi,Facility
FI,60.2165726,24.8923674,helky.fi,Facility
FI,60.2698355,24.8459562,aikataulut.reittiopas.fi,Facility
FI,60.4515519,26.2042108,itauusimaa.fi,Facility
FI,62.8796088,24.811486,www.keskikirjastot.fi,Facility
FI,66.3297907,26.013524,www.rovaniemi.fi,Unknown
FI,60.4401584,21.6364188,vaihela.fi,Facility
FI,61.8865316,21.8392681,www.sipokelkka.net,Unknown
FI,60.2407472,24.5405411,www.hsy.fi,Facility
FI,64.3214246,29.0834499,www.nettimokki.com,Facility
FI,60.9816024,25.7365677,www.ristorantemomento.fi,Facility
FI,60.4055236,25.1030186,www.kerava.fi,Unknown
FI,63.3664095,25.5897248,www.shellhelmisimpukka.fi,Facility
FI,60.2475431,24.0714058,www.luksia.fi,Facility
FI,60.4545395,26.9370693,pioniseura.fi,Facility
FI,62.5916092,29.7360288,joensuu.meripelastus.fi,Facility
FI,60.9137058,26.3003917,www.sf-caravankaakkoishame.fi,Facility
FI,60.1943766,24.9695495,rikosseuraamus.fi,Facility
FI,60.473428,22.2496913,www.foli.fi,Facility
FI,60.2264786,24.8609504,ruoka.palmia.fi,Facility
FI,60.4830455,22.3306224,www.kic.fi,Facility
FI,61.1262719,21.5044217,rauma.fi,Facility
FI,61.4981516,23.7692012,www.normal.fi,Commerce
FI,63.8867408,24.8945238,www.uikko.fi,Facility
FI,67.7480957,29.6105299,www.helsinki.fi,Unknown
FI,62.4186057,22.1975792,asemat.neste.fi,Facility
FI,62.405558,30.8821631,www.pohjoiskarjalankelkkaurat.fi,Facility
FI,60.1584461,24.9416202,www.hel.fi,Facility
FI,61.6806117,24.1551498,www.luontoon.fi,Facility
FI,62.6212244,22.4076822,www.lakeudenmoottorikelkkailijat.com,Unknown
FI,64.127392,29.5182797,sormulanpuoti.fi,Facility
FI,64.1369253,28.2531125,majoitus.vuokatinaateli.fi,Facility
FI,60.4434889,22.2438127,www.upeaupea.fi,Commerce
FI,60.2924573,24.964285,www.dressmann.com,Commerce
FI,60.8674847,26.7072878,www.k-ruoka.fi,Commerce
FI,60.734041,24.7608788,hamk.finna.fi,Facility
FI,62.6052349,23.7233777,susemk.fi,Facility
FI,60.1018228,19.9331823,www.mariehamn.ax,Facility
FI,60.2041519,24.955485,hyotykasviyhdistys.fi,Unknown
FI,63.0020671,23.8162725,digiruokalista.com,Facility
FI,61.7431161,26.1037059,jslumikissat.blogspot.com,Unknown
FI,61.5583997,28.0167496,www.pistocamp.fi,Facility
FI,64.227801,27.7729673,www.kajaaninmoottorikelkkayhdistys.net,Facility
FI,59.9413449,23.7267697,sandisbutik.fi,Facility
